[{"lat": 32.066691, "race": "Black", "name": "Matthew Ajibade", "date_index": 1, "date": "JANUARY 1, 2015", "cause": "Death in custody", "armed": "No", "long": -81.167881, "sex": "Male"}, {"lat": 47.2465339, "race": "Asian/Pacific Islande", "name": "Tim Elliott", "date_index": 2, "date": "JANUARY 2, 2015", "cause": "Gunshot", "armed": "Firearm", "long": -123.119497, "sex": "Male"}, {"lat": 45.4864514, "race": "White", "name": "Lewis Lembke", "date_index": 2, "date": "JANUARY 2, 2015", "cause": "Gunshot", "armed": "Firearm", "long": -122.8912564, "sex": "Male"}, {"lat": 21.9332907, "race": "White", "name": "Michael Kocher Jr", "date_index": 3, "date": "JANUARY 3, 2015", "cause": "Struck by vehicle", "armed": "No", "long": -159.6418879, "sex": "Male"}, {"lat": 37.6938192, "race": "Hispanic/Latino", "name": "John Quintero", "date_index": 3, "date": "JANUARY 3, 2015", "cause": "Gunshot", "armed": "No", "long": -97.2805298, "sex": "Male"}, {"lat": 37.762849, "race": "White", "name": "Matthew Hoffman", "date_index": 4, "date": "JANUARY 4, 2015", "cause": "Gunshot", "armed": "Non-lethal firearm", "long": -122.422005, "sex": "Male"}, {"lat": 35.878937, "race": "White", "name": "Kenneth Brown", "date_index": 4, "date": "JANUARY 4, 2015", "cause": "Gunshot", "armed": "Firearm", "long": -97.42531849999999, "sex": "Male"}, {"lat": 40.3840629, "race": "Hispanic/Latino", "name": "Michael Rodriguez", "date_index": 5, "date": "JANUARY 5, 2015", "cause": "Gunshot", "armed": "Other", "long": -104.6920899, "sex": "Male"}, {"lat": 33.3279117, "race": "Hispanic/Latino", "name": "Kenneth Buck", "date_index": 5, "date": "JANUARY 5, 2015", "cause": "Gunshot", "armed": "Firearm", "long": -111.8351765, "sex": "Male"}, {"lat": 40.43462, "race": "Black", "name": "Frank Smart", "date_index": 5, "date": "JANUARY 5, 2015", "cause": "Death in custody", "armed": "No", "long": -79.993521, "sex": "Male"}, {"lat": 37.9297771, "race": "White", "name": "Patrick Wetter", "date_index": 6, "date": "JANUARY 6, 2015", "cause": "Gunshot", "armed": "Knife", "long": -121.2981388, "sex": "Male"}, {"lat": 40.4134017, "race": "Black", "name": "Leslie Sapp III", "date_index": 6, "date": "JANUARY 6, 2015", "cause": "Gunshot", "armed": "Non-lethal firearm", "long": -79.991434, "sex": "Male"}, {"lat": 38.71120519999999, "race": "White", "name": "Brock Nichols", "date_index": 6, "date": "JANUARY 6, 2015", "cause": "Gunshot", "armed": "Firearm", "long": -97.568043, "sex": "Male"}, {"lat": 33.9206769, "race": "Black", "name": "Brian Pickett", "date_index": 6, "date": "JANUARY 6, 2015", "cause": "Taser", "armed": "No", "long": -118.2454315, "sex": "Male"}, {"lat": 40.810027, "race": "White", "name": "Autumn Steele", "date_index": 6, "date": "JANUARY 6, 2015", "cause": "Gunshot", "armed": "No", "long": -91.11858699999999, "sex": "Female"}, {"lat": 28.955349, "race": "Black", "name": "Ronald Sneed", "date_index": 7, "date": "JANUARY 7, 2015", "cause": "Gunshot", "armed": "Firearm", "long": -95.369413, "sex": "Male"}, {"lat": 41.5810414, "race": "White", "name": "Nicholas Brickman", "date_index": 7, "date": "JANUARY 7, 2015", "cause": "Gunshot", "armed": "Firearm", "long": -93.6096201, "sex": "Male"}, {"lat": 41.9936, "race": "White", "name": "Joseph Caffarello", "date_index": 7, "date": "JANUARY 7, 2015", "cause": "Gunshot", "armed": "Vehicle", "long": -87.87617399999999, "sex": "Male"}, {"lat": 39.9979558, "race": "Black", "name": "Hashim Abdul-Rasheed", "date_index": 7, "date": "JANUARY 7, 2015", "cause": "Gunshot", "armed": "Knife", "long": -82.8868286, "sex": "Male"}, {"lat": 42.0180766, "race": "Black", "name": "Andre Murphy Sr", "date_index": 7, "date": "JANUARY 7, 2015", "cause": "Death in custody", "armed": "No", "long": -97.4246275, "sex": "Male"}, {"lat": 41.083274, "race": "White", "name": "Thomas Hamby", "date_index": 8, "date": "JANUARY 8, 2015", "cause": "Gunshot", "armed": "Firearm", "long": -112.083133, "sex": "Male"}, {"lat": 29.9412567, "race": "Black", "name": "Omarr Jackson", "date_index": 8, "date": "JANUARY 8, 2015", "cause": "Gunshot", "armed": "Firearm", "long": -90.0852613, "sex": "Male"}, {"lat": 45.862727, "race": "White", "name": "Loren Simpson", "date_index": 8, "date": "JANUARY 8, 2015", "cause": "Gunshot", "armed": "No", "long": -108.314304, "sex": "Male"}, {"lat": 40.7714805, "race": "White", "name": "James Barker", "date_index": 8, "date": "JANUARY 8, 2015", "cause": "Gunshot", "armed": "Other", "long": -111.8719628, "sex": "Male"}, {"lat": 33.1047655, "race": "Black", "name": "Artago Howard", "date_index": 8, "date": "JANUARY 8, 2015", "cause": "Gunshot", "armed": "No", "long": -92.3479155, "sex": "Male"}, {"lat": 34.542133, "race": "White", "name": "Jimmy Foreman", "date_index": 9, "date": "JANUARY 9, 2015", "cause": "Gunshot", "armed": "Firearm", "long": -91.965851, "sex": "Male"}, {"lat": 31.8576626, "race": "Hispanic/Latino", "name": "Andy Martinez", "date_index": 9, "date": "JANUARY 9, 2015", "cause": "Gunshot", "armed": "Firearm", "long": -106.4397387, "sex": "Male"}, {"lat": 36.1895092, "race": "Hispanic/Latino", "name": "Salvador Figueroa", "date_index": 10, "date": "JANUARY 11, 2015", "cause": "Gunshot", "armed": "Firearm", "long": -115.1878812, "sex": "Male"}, {"lat": 33.9525048, "race": "Hispanic/Latino", "name": "Brian Barbosa", "date_index": 10, "date": "JANUARY 11, 2015", "cause": "Gunshot", "armed": "Firearm", "long": -118.1889666, "sex": "Male"}, {"lat": 39.6916237, "race": "White", "name": "Tommy Smith", "date_index": 11, "date": "JANUARY 12, 2015", "cause": "Gunshot", "armed": "Firearm", "long": -88.30321049999999, "sex": "Male"}, {"lat": 28.911423, "race": "White", "name": "Richard McClendon", "date_index": 12, "date": "JANUARY 13, 2015", "cause": "Gunshot", "armed": "Knife", "long": -98.542705, "sex": "Male"}, {"lat": 35.0946582, "race": "White", "name": "John O'Keefe", "date_index": 12, "date": "JANUARY 13, 2015", "cause": "Gunshot", "armed": "Firearm", "long": -106.5863374, "sex": "Male"}, {"lat": 40.4052256, "race": "White", "name": "Talbot Schroeder", "date_index": 13, "date": "JANUARY 14, 2015", "cause": "Gunshot", "armed": "Knife", "long": -74.30114859999999, "sex": "Male"}, {"lat": 29.03447, "race": "White", "name": "Robert Edwards", "date_index": 13, "date": "JANUARY 14, 2015", "cause": "Gunshot", "armed": "Firearm", "long": -95.4281381, "sex": "Male"}, {"lat": 38.3176972, "race": "White", "name": "Michael Goebel", "date_index": 13, "date": "JANUARY 14, 2015", "cause": "Gunshot", "armed": "Vehicle", "long": -90.7943068, "sex": "Male"}, {"lat": 36.7810141, "race": "Black", "name": "Mario Jordan", "date_index": 13, "date": "JANUARY 14, 2015", "cause": "Gunshot", "armed": "Firearm", "long": -76.3478349, "sex": "Male"}, {"lat": 44.957908, "race": "Black", "name": "Marcus Golden", "date_index": 13, "date": "JANUARY 14, 2015", "cause": "Gunshot", "armed": "Vehicle", "long": -93.0941173, "sex": "Male"}, {"lat": 42.262431, "race": "White", "name": "Louis Becker", "date_index": 13, "date": "JANUARY 14, 2015", "cause": "Struck by vehicle", "armed": "No", "long": -73.9357393, "sex": "Male"}, {"lat": 40.5398286, "race": "White", "name": "Jeffrey Nielson", "date_index": 13, "date": "JANUARY 14, 2015", "cause": "Gunshot", "armed": "Knife", "long": -111.8873465, "sex": "Male"}, {"lat": 44.825497, "race": "White", "name": "Quincy Reindl", "date_index": 14, "date": "JANUARY 15, 2015", "cause": "Gunshot", "armed": "Firearm", "long": -93.358414, "sex": "Male"}, {"lat": 30.748445, "race": "White", "name": "Nathan Massey", "date_index": 14, "date": "JANUARY 15, 2015", "cause": "Gunshot", "armed": "Firearm", "long": -92.4400369, "sex": "Male"}, {"lat": 38.265289, "race": "Hispanic/Latino", "name": "Jose Ceja", "date_index": 14, "date": "JANUARY 15, 2015", "cause": "Gunshot", "armed": "Knife", "long": -121.997607, "sex": "Male"}, {"lat": 39.82092, "race": "Black", "name": "Donte Sowell", "date_index": 14, "date": "JANUARY 15, 2015", "cause": "Gunshot", "armed": "Firearm", "long": -85.989875, "sex": "Male"}, {"lat": 33.5106875, "race": "Black", "name": "Dewayne Carr", "date_index": 14, "date": "JANUARY 15, 2015", "cause": "Gunshot", "armed": "Vehicle", "long": -111.910322, "sex": "Male"}, {"lat": 40.8272696, "race": "White", "name": "Christina Prestianni", "date_index": 14, "date": "JANUARY 15, 2015", "cause": "Gunshot", "armed": "No", "long": -74.1523091, "sex": "Female"}, {"lat": 37.5864513, "race": "Unknown", "name": "Zaki Shinwary", "date_index": 15, "date": "JANUARY 16, 2015", "cause": "Gunshot", "armed": "Knife", "long": -122.0599902, "sex": "Male"}, {"lat": 45.062251, "race": "Asian/Pacific Islande", "name": "Sinthanouxay Khottavongsa", "date_index": 15, "date": "JANUARY 16, 2015", "cause": "Taser", "armed": "Other", "long": -93.318744, "sex": "Male"}, {"lat": 32.4070622, "race": "White", "name": "Scott Hall", "date_index": 15, "date": "JANUARY 16, 2015", "cause": "Gunshot", "armed": "Firearm", "long": -96.0629979, "sex": "Male"}, {"lat": 36.1459344, "race": "Black", "name": "Rodney Walker", "date_index": 15, "date": "JANUARY 16, 2015", "cause": "Gunshot", "armed": "Firearm", "long": -95.9956838, "sex": "Male"}, {"lat": 29.6134646, "race": "Hispanic/Latino", "name": "Phillip Garcia", "date_index": 15, "date": "JANUARY 16, 2015", "cause": "Gunshot", "armed": "Firearm", "long": -95.21438839999999, "sex": "Male"}, {"lat": 39.7280524, "race": "Black", "name": "Kavonda Payton", "date_index": 15, "date": "JANUARY 16, 2015", "cause": "Gunshot", "armed": "Firearm", "long": -104.8445436, "sex": "Male"}, {"lat": 37.5191625, "race": "White", "name": "Howard Robbins", "date_index": 15, "date": "JANUARY 16, 2015", "cause": "Struck by vehicle", "armed": "No", "long": -84.6146124, "sex": "Male"}, {"lat": 35.7478769, "race": "Black", "name": "Terence Walker", "date_index": 16, "date": "JANUARY 17, 2015", "cause": "Gunshot", "armed": "Firearm", "long": -95.3696909, "sex": "Male"}, {"lat": 34.036212, "race": "Hispanic/Latino", "name": "Pablo Meza", "date_index": 16, "date": "JANUARY 17, 2015", "cause": "Gunshot", "armed": "Firearm", "long": -118.2324433, "sex": "Male"}, {"lat": 32.8103653, "race": "Hispanic/Latino", "name": "Daniel Brumley", "date_index": 16, "date": "JANUARY 17, 2015", "cause": "Gunshot", "armed": "Knife", "long": -97.3386854, "sex": "Male"}, {"lat": 33.0759472, "race": "White", "name": "Johnathon Guillory", "date_index": 17, "date": "JANUARY 18, 2015", "cause": "Gunshot", "armed": "Firearm", "long": -112.0454253, "sex": "Male"}, {"lat": 37.549861, "race": "White", "name": "Carter Castle", "date_index": 17, "date": "JANUARY 18, 2015", "cause": "Gunshot", "armed": "Firearm", "long": -82.901618, "sex": "Male"}, {"lat": 42.256695, "race": "White", "name": "Paul Campbell", "date_index": 18, "date": "JANUARY 19, 2015", "cause": "Gunshot", "armed": "Knife", "long": -70.931621, "sex": "Male"}, {"lat": 33.7417221, "race": "White", "name": "Todd Allen Hodge", "date_index": 19, "date": "JANUARY 21, 2015", "cause": "Gunshot", "armed": "Firearm", "long": -116.9586032, "sex": "Male"}, {"lat": 34.8270025, "race": "White", "name": "John Gorman", "date_index": 19, "date": "JANUARY 21, 2015", "cause": "Gunshot", "armed": "Knife", "long": -90.3350487, "sex": "Male"}, {"lat": 38.660995, "race": "Black", "name": "Isaac Holmes", "date_index": 19, "date": "JANUARY 21, 2015", "cause": "Gunshot", "armed": "Firearm", "long": -90.233868, "sex": "Male"}, {"lat": 42.908086, "race": "White", "name": "Andrew Toto", "date_index": 19, "date": "JANUARY 21, 2015", "cause": "Gunshot", "armed": "Firearm", "long": -71.3366894, "sex": "Male"}, {"lat": 31.175022, "race": "Black", "name": "Tiano Meton", "date_index": 20, "date": "JANUARY 22, 2015", "cause": "Gunshot", "armed": "Non-lethal firearm", "long": -105.3378215, "sex": "Male"}, {"lat": 32.495265, "race": "White", "name": "Kristiana Coignard", "date_index": 20, "date": "JANUARY 22, 2015", "cause": "Gunshot", "armed": "Knife", "long": -94.7464907, "sex": "Female"}, {"lat": 30.1676477, "race": "White", "name": "Robert Mesch", "date_index": 21, "date": "JANUARY 23, 2015", "cause": "Gunshot", "armed": "Firearm", "long": -97.7892828, "sex": "Male"}, {"lat": 33.5765676, "race": "Hispanic/Latino", "name": "Jose Antonio Espinoza Ruiz", "date_index": 21, "date": "JANUARY 23, 2015", "cause": "Gunshot", "armed": "Knife", "long": -102.3692758, "sex": "Male"}, {"lat": 26.1498465, "race": "Black", "name": "Demaris Turner", "date_index": 21, "date": "JANUARY 23, 2015", "cause": "Gunshot", "armed": "Vehicle", "long": -80.20944589999999, "sex": "Male"}, {"lat": 43.8255273, "race": "White", "name": "Daryl Myler", "date_index": 22, "date": "JANUARY 24, 2015", "cause": "Gunshot", "armed": "Firearm", "long": -111.7787567, "sex": "Male"}, {"lat": 39.284467, "race": "Black", "name": "Darin Hutchins", "date_index": 22, "date": "JANUARY 24, 2015", "cause": "Gunshot", "armed": "Knife", "long": -76.64686300000001, "sex": "Male"}, {"lat": 39.749118, "race": "Unknown", "name": "William Campbell", "date_index": 23, "date": "JANUARY 25, 2015", "cause": "Gunshot", "armed": "Firearm", "long": -74.92930299999999, "sex": "Male"}, {"lat": 38.2854254, "race": "Hispanic/Latino", "name": "Orlando Lopez", "date_index": 23, "date": "JANUARY 25, 2015", "cause": "Gunshot", "armed": "Firearm", "long": -104.573663, "sex": "Male"}, {"lat": 45.0357324, "race": "White", "name": "Raymond Kmetz", "date_index": 24, "date": "JANUARY 26, 2015", "cause": "Gunshot", "armed": "Firearm", "long": -93.38571379999999, "sex": "Male"}, {"lat": 33.0487881, "race": "Hispanic/Latino", "name": "Joshua Garcia", "date_index": 24, "date": "JANUARY 26, 2015", "cause": "Gunshot", "armed": "No", "long": -101.6667856, "sex": "Male"}, {"lat": 39.7534059, "race": "Hispanic/Latino", "name": "Jesse Hernandez", "date_index": 24, "date": "JANUARY 26, 2015", "cause": "Gunshot", "armed": "No", "long": -104.9093803, "sex": "Non-conforming"}, {"lat": 35.5890739, "race": "Hispanic/Latino", "name": "David Garcia", "date_index": 24, "date": "JANUARY 26, 2015", "cause": "Gunshot", "armed": "Knife", "long": -119.334758, "sex": "Male"}, {"lat": 37.7392794, "race": "Black", "name": "Alvin Haynes", "date_index": 24, "date": "JANUARY 26, 2015", "cause": "Death in custody", "armed": "No", "long": -122.4353942, "sex": "Male"}, {"lat": 33.4963923, "race": "Native", "name": "Nicolas Tewa", "date_index": 25, "date": "JANUARY 27, 2015", "cause": "Gunshot", "armed": "Vehicle", "long": -112.1142435, "sex": "America"}, {"lat": 39.8794963, "race": "Black", "name": "Jermonte Fletcher", "date_index": 25, "date": "JANUARY 27, 2015", "cause": "Gunshot", "armed": "Firearm", "long": -82.9959325, "sex": "Male"}, {"lat": 33.0519422, "race": "White", "name": "Chris Ingram", "date_index": 25, "date": "JANUARY 27, 2015", "cause": "Gunshot", "armed": "Firearm", "long": -109.3245805, "sex": "Male"}, {"lat": 38.0290743, "race": "Asian/Pacific Islande", "name": "Matautu Nuu", "date_index": 26, "date": "JANUARY 28, 2015", "cause": "Gunshot", "armed": "Other", "long": -121.3156545, "sex": "Male"}, {"lat": 61.2184085, "race": "Native", "name": "Larry Kobuk", "date_index": 26, "date": "JANUARY 28, 2015", "cause": "Death in custody", "armed": "No", "long": -149.858016, "sex": "America"}, {"lat": 29.5575344, "race": "White", "name": "Cody Karasek", "date_index": 26, "date": "JANUARY 28, 2015", "cause": "Gunshot", "armed": "Firearm", "long": -95.7848822, "sex": "Male"}, {"lat": 33.4562976, "race": "White", "name": "Alan Alverson", "date_index": 26, "date": "JANUARY 28, 2015", "cause": "Gunshot", "armed": "Firearm", "long": -97.8100295, "sex": "Male"}, {"lat": 32.678602, "race": "White", "name": "Wendell King", "date_index": 27, "date": "JANUARY 29, 2015", "cause": "Gunshot", "armed": "Firearm", "long": -97.38073399999999, "sex": "Male"}, {"lat": 36.121248, "race": "White", "name": "Ralph Willis", "date_index": 27, "date": "JANUARY 29, 2015", "cause": "Gunshot", "armed": "No", "long": -97.05018899999999, "sex": "Male"}, {"lat": 41.2427409, "race": "White", "name": "Tiffany Terry", "date_index": 28, "date": "JANUARY 30, 2015", "cause": "Gunshot", "armed": "Knife", "long": -95.99041849999999, "sex": "Female"}, {"lat": 30.1887227, "race": "Unknown", "name": "Robert Edwards", "date_index": 28, "date": "JANUARY 30, 2015", "cause": "Death in custody", "armed": "No", "long": -97.7686751, "sex": "Male"}, {"lat": 45.7895318, "race": "White", "name": "John Marshall", "date_index": 28, "date": "JANUARY 30, 2015", "cause": "Gunshot", "armed": "Firearm", "long": -108.5128591, "sex": "Male"}, {"lat": 29.867687, "race": "Hispanic/Latino", "name": "Victor Reyes", "date_index": 29, "date": "JANUARY 31, 2015", "cause": "Gunshot", "armed": "Firearm", "long": -95.551977, "sex": "Male"}, {"lat": 39.379777, "race": "Black", "name": "Edward Bright Sr", "date_index": 29, "date": "JANUARY 31, 2015", "cause": "Gunshot", "armed": "Knife", "long": -76.8201615, "sex": "Male"}, {"lat": 43.5997985, "race": "White", "name": "Jacob Haglund", "date_index": 30, "date": "FEBRUARY 2, 2015", "cause": "Gunshot", "armed": "Firearm", "long": -83.8729815, "sex": "Male"}, {"lat": 29.7041647, "race": "Asian/Pacific Islande", "name": "Hung Trieu", "date_index": 30, "date": "FEBRUARY 2, 2015", "cause": "Gunshot", "armed": "Firearm", "long": -95.62185529999999, "sex": "Male"}, {"lat": 34.417198, "race": "White", "name": "Francis Rose III", "date_index": 30, "date": "FEBRUARY 2, 2015", "cause": "Gunshot", "armed": "Firearm", "long": -117.1768957, "sex": "Male"}, {"lat": 39.7741597, "race": "White", "name": "David Kassick", "date_index": 30, "date": "FEBRUARY 2, 2015", "cause": "Gunshot", "armed": "No", "long": -76.96033229999999, "sex": "Male"}, {"lat": 37.827567, "race": "Black", "name": "Yuvette Henderson", "date_index": 31, "date": "FEBRUARY 3, 2015", "cause": "Gunshot", "armed": "Firearm", "long": -122.2845887, "sex": "Female"}, {"lat": 38.8443395, "race": "Black", "name": "Natasha McKenna", "date_index": 31, "date": "FEBRUARY 3, 2015", "cause": "Taser", "armed": "No", "long": -77.31110149999999, "sex": "Female"}, {"lat": 38.5800961, "race": "Black", "name": "Ledarius Williams", "date_index": 31, "date": "FEBRUARY 3, 2015", "cause": "Gunshot", "armed": "Firearm", "long": -90.23752669999999, "sex": "Male"}, {"lat": 37.9993842, "race": "Black", "name": "Dewayne Ward Jr", "date_index": 31, "date": "FEBRUARY 3, 2015", "cause": "Gunshot", "armed": "Knife", "long": -121.8182557, "sex": "Male"}, {"lat": 31.523361, "race": "White", "name": "Anthony Purvis", "date_index": 31, "date": "FEBRUARY 3, 2015", "cause": "Gunshot", "armed": "Firearm", "long": -82.845175, "sex": "Male"}, {"lat": 33.3782417, "race": "Hispanic/Latino", "name": "Salvador Muna", "date_index": 32, "date": "FEBRUARY 4, 2015", "cause": "Gunshot", "armed": "Firearm", "long": -111.9784046, "sex": "Male"}, {"lat": 33.953353, "race": "White", "name": "Paul Johnson", "date_index": 32, "date": "FEBRUARY 4, 2015", "cause": "Gunshot", "armed": "Firearm", "long": -117.6502601, "sex": "Male"}, {"lat": 35.1647898, "race": "Black", "name": "Markell Atkins", "date_index": 32, "date": "FEBRUARY 4, 2015", "cause": "Gunshot", "armed": "Knife", "long": -89.9336689, "sex": "Male"}, {"lat": 33.3782417, "race": "Hispanic/Latino", "name": "Joaquin Hernandez", "date_index": 32, "date": "FEBRUARY 4, 2015", "cause": "Gunshot", "armed": "No", "long": -111.9784046, "sex": "Male"}, {"lat": 31.5415632, "race": "Black", "name": "Jimmy Robinson Jr", "date_index": 32, "date": "FEBRUARY 4, 2015", "cause": "Gunshot", "armed": "Firearm", "long": -97.127849, "sex": "Male"}, {"lat": 28.499575, "race": "Hispanic/Latino", "name": "Izzy Colon", "date_index": 32, "date": "FEBRUARY 4, 2015", "cause": "Gunshot", "armed": "Firearm", "long": -81.305503, "sex": "Male"}, {"lat": 34.0443836, "race": "Hispanic/Latino", "name": "Wilber Castillo-Gongora", "date_index": 33, "date": "FEBRUARY 5, 2015", "cause": "Taser", "armed": "No", "long": -98.93196019999999, "sex": "Male"}, {"lat": 33.9932344, "race": "White", "name": "John Sawyer", "date_index": 33, "date": "FEBRUARY 5, 2015", "cause": "Gunshot", "armed": "Non-lethal firearm", "long": -117.0571532, "sex": "Male"}, {"lat": 30.466476, "race": "Black", "name": "Jeremy Lett", "date_index": 33, "date": "FEBRUARY 5, 2015", "cause": "Gunshot", "armed": "No", "long": -84.329257, "sex": "Male"}, {"lat": 35.403065, "race": "Black", "name": "Herbert Hill", "date_index": 34, "date": "FEBRUARY 6, 2015", "cause": "Gunshot", "armed": "Firearm", "long": -97.53256599999999, "sex": "Male"}, {"lat": 35.266117, "race": "Black", "name": "James Allen", "date_index": 35, "date": "FEBRUARY 7, 2015", "cause": "Gunshot", "armed": "Firearm", "long": -81.227414, "sex": "Male"}, {"lat": 42.893268, "race": "White", "name": "Alan James", "date_index": 35, "date": "FEBRUARY 7, 2015", "cause": "Gunshot", "armed": "Firearm", "long": -85.660583, "sex": "Male"}, {"lat": 30.247011, "race": "White", "name": "Sawyer Flache", "date_index": 36, "date": "FEBRUARY 8, 2015", "cause": "Gunshot", "armed": "Firearm", "long": -97.8883818, "sex": "Male"}, {"lat": 28.4805815, "race": "White", "name": "Joseph Paffen", "date_index": 36, "date": "FEBRUARY 8, 2015", "cause": "Gunshot", "armed": "Firearm", "long": -81.31845679999999, "sex": "Male"}, {"lat": 41.1664424, "race": "White", "name": "Vincent Cordaro", "date_index": 37, "date": "FEBRUARY 9, 2015", "cause": "Gunshot", "armed": "Firearm", "long": -74.0045878, "sex": "Male"}, {"lat": 33.7873322, "race": "White", "name": "Larry Hostetter", "date_index": 37, "date": "FEBRUARY 9, 2015", "cause": "Gunshot", "armed": "Firearm", "long": -97.7128551, "sex": "Male"}, {"lat": 32.6567487, "race": "Black", "name": "Desmond Luster", "date_index": 37, "date": "FEBRUARY 9, 2015", "cause": "Gunshot", "armed": "Firearm", "long": -96.7503247, "sex": "Male"}, {"lat": 33.9774486, "race": "White", "name": "Dean Bucheit", "date_index": 37, "date": "FEBRUARY 9, 2015", "cause": "Struck by vehicle", "armed": "No", "long": -118.4318442, "sex": "Male"}, {"lat": 46.1595173, "race": "White", "name": "Kenneth Kreyssig", "date_index": 38, "date": "FEBRUARY 10, 2015", "cause": "Gunshot", "armed": "Firearm", "long": -68.1033892, "sex": "Male"}, {"lat": 61.207559, "race": "Hispanic/Latino", "name": "John Whittaker", "date_index": 38, "date": "FEBRUARY 10, 2015", "cause": "Gunshot", "armed": "Firearm", "long": -149.858206, "sex": "Male"}, {"lat": 39.5747212, "race": "White", "name": "Brian Fritze", "date_index": 38, "date": "FEBRUARY 10, 2015", "cause": "Gunshot", "armed": "Firearm", "long": -107.4481297, "sex": "Male"}, {"lat": 46.22851199999999, "race": "Hispanic/Latino", "name": "Antonio Zambrano-Montes", "date_index": 38, "date": "FEBRUARY 10, 2015", "cause": "Gunshot", "armed": "Other", "long": -119.101932, "sex": "Male"}, {"lat": 35.024639, "race": "Black", "name": "Anthony Bess", "date_index": 38, "date": "FEBRUARY 10, 2015", "cause": "Gunshot", "armed": "Firearm", "long": -90.05448899999999, "sex": "Male"}, {"lat": 37.3166993, "race": "Black", "name": "Phillip Watkins", "date_index": 39, "date": "FEBRUARY 11, 2015", "cause": "Gunshot", "armed": "Knife", "long": -121.8761112, "sex": "Male"}, {"lat": 32.865767, "race": "White", "name": "Fletcher Stewart", "date_index": 39, "date": "FEBRUARY 11, 2015", "cause": "Gunshot", "armed": "Firearm", "long": -85.70702, "sex": "Male"}, {"lat": 40.3287574, "race": "White", "name": "Richard Carlin", "date_index": 40, "date": "FEBRUARY 13, 2015", "cause": "Gunshot", "armed": "Unknown", "long": -75.908033, "sex": "Male"}, {"lat": 35.951433, "race": "White", "name": "Matthew Belk", "date_index": 40, "date": "FEBRUARY 13, 2015", "cause": "Gunshot", "armed": "Firearm", "long": -88.5734499, "sex": "Male"}, {"lat": 34.1647483, "race": "White", "name": "Jonathan Harden", "date_index": 40, "date": "FEBRUARY 13, 2015", "cause": "Gunshot", "armed": "Vehicle", "long": -117.3320514, "sex": "Male"}, {"lat": 39.0714626, "race": "Hispanic/Latino", "name": "Andres Lara-Rodriguez", "date_index": 40, "date": "FEBRUARY 13, 2015", "cause": "Gunshot", "armed": "Firearm", "long": -94.64023809999999, "sex": "Male"}, {"lat": 27.5544766, "race": "White", "name": "Roy Day", "date_index": 41, "date": "FEBRUARY 14, 2015", "cause": "Gunshot", "armed": "Firearm", "long": -99.4803543, "sex": "Male"}, {"lat": 25.9505855, "race": "Black", "name": "Lavall Hall", "date_index": 42, "date": "FEBRUARY 15, 2015", "cause": "Gunshot", "armed": "Other", "long": -80.20748490000001, "sex": "Male"}, {"lat": 34.8043135, "race": "White", "name": "Howard Means Jr", "date_index": 42, "date": "FEBRUARY 15, 2015", "cause": "Gunshot", "armed": "Firearm", "long": -88.2045165, "sex": "Male"}, {"lat": 32.6102305, "race": "Hispanic/Latino", "name": "Daniel Mejia", "date_index": 42, "date": "FEBRUARY 15, 2015", "cause": "Gunshot", "armed": "Knife", "long": -110.631677, "sex": "Male"}, {"lat": 40.2403743, "race": "White", "name": "Cody Evans", "date_index": 42, "date": "FEBRUARY 15, 2015", "cause": "Gunshot", "armed": "Non-lethal firearm", "long": -111.6861385, "sex": "Male"}, {"lat": 39.1611167, "race": "White", "name": "Chance Thompson", "date_index": 42, "date": "FEBRUARY 15, 2015", "cause": "Taser", "armed": "No", "long": -121.4581971, "sex": "Male"}, {"lat": 45.1740071, "race": "White", "name": "Bruce Steward", "date_index": 42, "date": "FEBRUARY 15, 2015", "cause": "Gunshot", "armed": "Knife", "long": -122.4374322, "sex": "Male"}, {"lat": 43.5789233, "race": "White", "name": "Michael Casper", "date_index": 43, "date": "FEBRUARY 16, 2015", "cause": "Gunshot", "armed": "Firearm", "long": -116.2223611, "sex": "Male"}, {"lat": 32.3580838, "race": "White", "name": "Daniel Caldwell", "date_index": 43, "date": "FEBRUARY 16, 2015", "cause": "Gunshot", "armed": "Firearm", "long": -111.0924145, "sex": "Male"}, {"lat": 29.3691842, "race": "Hispanic/Latino", "name": "Pedro 'Pete' Juan Saldivar", "date_index": 44, "date": "FEBRUARY 17, 2015", "cause": "Gunshot", "armed": "Other", "long": -100.8305542, "sex": "Male"}, {"lat": 37.2241898, "race": "White", "name": "Michael Ireland", "date_index": 44, "date": "FEBRUARY 17, 2015", "cause": "Gunshot", "armed": "No", "long": -93.31942889999999, "sex": "Male"}, {"lat": 42.51513310000001, "race": "White", "name": "Matthew Lundy", "date_index": 44, "date": "FEBRUARY 17, 2015", "cause": "Gunshot", "armed": "Firearm", "long": -84.7005739, "sex": "Male"}, {"lat": 42.61421730000001, "race": "White", "name": "Doug Sparks", "date_index": 44, "date": "FEBRUARY 17, 2015", "cause": "Gunshot", "armed": "Non-lethal firearm", "long": -71.28508190000001, "sex": "Male"}, {"lat": 35.22865, "race": "White", "name": "Betty Sexton", "date_index": 44, "date": "FEBRUARY 17, 2015", "cause": "Gunshot", "armed": "Firearm", "long": -81.1696259, "sex": "Female"}, {"lat": 35.2509799, "race": "Black", "name": "Janisha Fonville", "date_index": 45, "date": "FEBRUARY 19, 2015", "cause": "Gunshot", "armed": "Knife", "long": -80.8183547, "sex": "Female"}, {"lat": 33.4814258, "race": "Black", "name": "Stanley Grant", "date_index": 46, "date": "FEBRUARY 20, 2015", "cause": "Gunshot", "armed": "Firearm", "long": -86.8239261, "sex": "Male"}, {"lat": 32.8722533, "race": "Hispanic/Latino", "name": "Rub\u00e9n Garc\u00eda Villalpando", "date_index": 46, "date": "FEBRUARY 20, 2015", "cause": "Gunshot", "armed": "No", "long": -97.09881899999999, "sex": "Male"}, {"lat": 29.983286, "race": "Hispanic/Latino", "name": "Alejandro Salazar", "date_index": 46, "date": "FEBRUARY 20, 2015", "cause": "Gunshot", "armed": "Firearm", "long": -95.40144509999999, "sex": "Male"}, {"lat": 36.2084404, "race": "Black", "name": "Terry Price", "date_index": 47, "date": "FEBRUARY 21, 2015", "cause": "Taser", "armed": "No", "long": -96.0028888, "sex": "Male"}, {"lat": 39.7926009, "race": "White", "name": "Kent Norman", "date_index": 47, "date": "FEBRUARY 21, 2015", "cause": "Gunshot", "armed": "Knife", "long": -85.9918903, "sex": "Male"}, {"lat": 33.3261576, "race": "White", "name": "Jason Carter", "date_index": 47, "date": "FEBRUARY 21, 2015", "cause": "Gunshot", "armed": "Firearm", "long": -105.6339764, "sex": "Male"}, {"lat": 26.256783, "race": "Black", "name": "Calvon Reid", "date_index": 48, "date": "FEBRUARY 22, 2015", "cause": "Taser", "armed": "No", "long": -80.1678529, "sex": "Male"}, {"lat": 27.990676, "race": "White", "name": "Bradford Leonard", "date_index": 48, "date": "FEBRUARY 22, 2015", "cause": "Gunshot", "armed": "Firearm", "long": -80.64577, "sex": "Male"}, {"lat": 34.6330885, "race": "Hispanic/Latino", "name": "Anthony Giaquinta", "date_index": 48, "date": "FEBRUARY 22, 2015", "cause": "Gunshot", "armed": "Firearm", "long": -83.598005, "sex": "Male"}, {"lat": 30.4520433, "race": "White", "name": "Robert Kohl", "date_index": 49, "date": "FEBRUARY 23, 2015", "cause": "Gunshot", "armed": "Firearm", "long": -90.9618969, "sex": "Male"}, {"lat": 33.9112859, "race": "White", "name": "Michael Smashey", "date_index": 49, "date": "FEBRUARY 23, 2015", "cause": "Gunshot", "armed": "Knife", "long": -84.694788, "sex": "Male"}, {"lat": 40.6308513, "race": "White", "name": "Jerome Nichols", "date_index": 49, "date": "FEBRUARY 23, 2015", "cause": "Gunshot", "armed": "Knife", "long": -75.4336703, "sex": "Male"}, {"lat": 32.5302185, "race": "Black", "name": "A'donte Washington", "date_index": 49, "date": "FEBRUARY 23, 2015", "cause": "Gunshot", "armed": "Firearm", "long": -86.36239719999999, "sex": "Male"}, {"lat": 44.5267372, "race": "White", "name": "Joseph Biegert", "date_index": 50, "date": "FEBRUARY 24, 2015", "cause": "Gunshot", "armed": "Knife", "long": -88.0584083, "sex": "Male"}, {"lat": 41.2428225, "race": "White", "name": "Daniel Elrod", "date_index": 50, "date": "FEBRUARY 24, 2015", "cause": "Gunshot", "armed": "No", "long": -95.93331219999999, "sex": "Male"}, {"lat": 35.497689, "race": "Black", "name": "Glenn Lewis", "date_index": 51, "date": "FEBRUARY 25, 2015", "cause": "Gunshot", "armed": "Vehicle", "long": -97.550073, "sex": "Male"}, {"lat": 36.2413179, "race": "White", "name": "Francis Spivey", "date_index": 51, "date": "FEBRUARY 25, 2015", "cause": "Gunshot", "armed": "Firearm", "long": -115.0572318, "sex": "Male"}, {"lat": 39.4629327, "race": "White", "name": "Alexander Long", "date_index": 51, "date": "FEBRUARY 25, 2015", "cause": "Gunshot", "armed": "No", "long": -87.3788314, "sex": "Male"}, {"lat": 30.4247588, "race": "White", "name": "Rodney Biggs", "date_index": 52, "date": "FEBRUARY 26, 2015", "cause": "Gunshot", "armed": "Firearm", "long": -89.09255019999999, "sex": "Male"}, {"lat": 28.103634, "race": "Hispanic/Latino", "name": "David Cuevas", "date_index": 52, "date": "FEBRUARY 26, 2015", "cause": "Gunshot", "armed": "Firearm", "long": -81.9506212, "sex": "Male"}, {"lat": 31.08848029999999, "race": "White", "name": "Crystal Miley", "date_index": 52, "date": "FEBRUARY 26, 2015", "cause": "Gunshot", "armed": "Firearm", "long": -83.64004039999999, "sex": "Female"}, {"lat": 37.7525032, "race": "Hispanic/Latino", "name": "Amilcar Perez-Lopez", "date_index": 52, "date": "FEBRUARY 26, 2015", "cause": "Gunshot", "armed": "Knife", "long": -122.4141048, "sex": "Male"}, {"lat": 46.237574, "race": "White", "name": "Russell Sharrer", "date_index": 53, "date": "FEBRUARY 27, 2015", "cause": "Death in custody", "armed": "No", "long": -119.095916, "sex": "Male"}, {"lat": 33.7470759, "race": "Hispanic/Latino", "name": "Ernesto Javier Canepa Diaz", "date_index": 53, "date": "FEBRUARY 27, 2015", "cause": "Gunshot", "armed": "No", "long": -117.8776234, "sex": "Male"}, {"lat": 34.6286118, "race": "White", "name": "Chazsten Freeman", "date_index": 53, "date": "FEBRUARY 27, 2015", "cause": "Gunshot", "armed": "Firearm", "long": -82.3912463, "sex": "Male"}, {"lat": 33.6511649, "race": "White", "name": "Stephanie Hill", "date_index": 54, "date": "FEBRUARY 28, 2015", "cause": "Gunshot", "armed": "Firearm", "long": -113.9251129, "sex": "Female"}, {"lat": 32.2296193, "race": "Hispanic/Latino", "name": "Jessica Uribe", "date_index": 54, "date": "FEBRUARY 28, 2015", "cause": "Gunshot", "armed": "Knife", "long": -110.9897204, "sex": "Female"}, {"lat": 35.9180231, "race": "Black", "name": "Ian Sherrod", "date_index": 54, "date": "FEBRUARY 28, 2015", "cause": "Gunshot", "armed": "Firearm", "long": -77.5477956, "sex": "Male"}, {"lat": 42.7555736, "race": "White", "name": "Deven Guilford", "date_index": 54, "date": "FEBRUARY 28, 2015", "cause": "Gunshot", "armed": "No", "long": -84.85123, "sex": "Male"}, {"lat": 38.9520457, "race": "Black", "name": "Cornelius Parker", "date_index": 54, "date": "FEBRUARY 28, 2015", "cause": "Gunshot", "armed": "Firearm", "long": -92.33668809999999, "sex": "Male"}, {"lat": 38.6731893, "race": "Black", "name": "Thomas Allen Jr", "date_index": 55, "date": "MARCH 1, 2015", "cause": "Gunshot", "armed": "No", "long": -90.29134429999999, "sex": "Male"}, {"lat": 19.9153502, "race": "White", "name": "Jeffrey Surnow", "date_index": 55, "date": "MARCH 1, 2015", "cause": "Struck by vehicle", "armed": "No", "long": -155.778043, "sex": "Male"}, {"lat": 30.7933134, "race": "White", "name": "Donald Matkins", "date_index": 55, "date": "MARCH 1, 2015", "cause": "Gunshot", "armed": "Firearm", "long": -88.6196909, "sex": "Male"}, {"lat": 35.4059676, "race": "Black", "name": "Darrell 'Hubbard' Gatewood", "date_index": 55, "date": "MARCH 1, 2015", "cause": "Taser", "armed": "No", "long": -97.5246576, "sex": "Male"}, {"lat": 34.0439162, "race": "Black", "name": "Charly 'Africa' Keunang", "date_index": 55, "date": "MARCH 1, 2015", "cause": "Gunshot", "armed": "No", "long": -118.2437856, "sex": "Male"}, {"lat": 41.5224698, "race": "Black", "name": "Shaquille Barrow", "date_index": 56, "date": "MARCH 2, 2015", "cause": "Gunshot", "armed": "Firearm", "long": -88.07442710000001, "sex": "Male"}, {"lat": 39.731138, "race": "Hispanic/Latino", "name": "Jennifer Lobato", "date_index": 56, "date": "MARCH 2, 2015", "cause": "Death in custody", "armed": "No", "long": -105.201768, "sex": "Female"}, {"lat": 33.4424414, "race": "White", "name": "Matthew Metz", "date_index": 57, "date": "MARCH 3, 2015", "cause": "Gunshot", "armed": "Knife", "long": -111.9314146, "sex": "Male"}, {"lat": 38.3798952, "race": "Black", "name": "Fednel Rhinvil", "date_index": 57, "date": "MARCH 3, 2015", "cause": "Gunshot", "armed": "Firearm", "long": -75.60717609999999, "sex": "Male"}, {"lat": 28.88614, "race": "White", "name": "Derek Cruice", "date_index": 58, "date": "MARCH 4, 2015", "cause": "Gunshot", "armed": "No", "long": -81.253581, "sex": "Male"}, {"lat": 37.9482671, "race": "Asian/Pacific Islande", "name": "Carl Lao", "date_index": 58, "date": "MARCH 4, 2015", "cause": "Gunshot", "armed": "Firearm", "long": -121.2858516, "sex": "Male"}, {"lat": 40.877159, "race": "White", "name": "Tyson Hubbard", "date_index": 59, "date": "MARCH 5, 2015", "cause": "Gunshot", "armed": "Firearm", "long": -96.6812929, "sex": "Male"}, {"lat": 42.968772, "race": "Black", "name": "Tyrone Lawrence", "date_index": 59, "date": "MARCH 5, 2015", "cause": "Gunshot", "armed": "Knife", "long": -87.903491, "sex": "Male"}, {"lat": 34.151041, "race": "Hispanic/Latino", "name": "Sergio Navas", "date_index": 59, "date": "MARCH 5, 2015", "cause": "Gunshot", "armed": "No", "long": -118.343541, "sex": "Male"}, {"lat": 33.1287656, "race": "White", "name": "Tony Ross", "date_index": 60, "date": "MARCH 6, 2015", "cause": "Taser", "armed": "No", "long": -95.5938276, "sex": "Male"}, {"lat": 43.082405, "race": "Black", "name": "Tony Robinson", "date_index": 60, "date": "MARCH 6, 2015", "cause": "Gunshot", "armed": "No", "long": -89.3650059, "sex": "Male"}, {"lat": 39.73558, "race": "Black", "name": "Naeschylus Vinzant", "date_index": 60, "date": "MARCH 6, 2015", "cause": "Gunshot", "armed": "No", "long": -104.798269, "sex": "Male"}, {"lat": 33.703393, "race": "Black", "name": "Bernard Moore", "date_index": 60, "date": "MARCH 6, 2015", "cause": "Struck by vehicle", "armed": "No", "long": -84.408062, "sex": "Male"}, {"lat": 29.7425519, "race": "Black", "name": "Andrew Williams", "date_index": 60, "date": "MARCH 6, 2015", "cause": "Gunshot", "armed": "Vehicle", "long": -81.9585072, "sex": "Male"}, {"lat": 33.4693769, "race": "White", "name": "Adam Reinhart", "date_index": 61, "date": "MARCH 7, 2015", "cause": "Gunshot", "armed": "Firearm", "long": -112.0433176, "sex": "Male"}, {"lat": 33.8190281, "race": "Black", "name": "Monique Deckard", "date_index": 62, "date": "MARCH 8, 2015", "cause": "Gunshot", "armed": "Knife", "long": -117.9401134, "sex": "Female"}, {"lat": 39.8183122, "race": "White", "name": "Michael McKillop", "date_index": 62, "date": "MARCH 8, 2015", "cause": "Gunshot", "armed": "No", "long": -75.45624579999999, "sex": "Male"}, {"lat": 35.426253, "race": "Hispanic/Latino", "name": "Aurelio Duarte", "date_index": 62, "date": "MARCH 8, 2015", "cause": "Gunshot", "armed": "Firearm", "long": -97.5826079, "sex": "Male"}, {"lat": 35.268472, "race": "White", "name": "Lester Brown", "date_index": 63, "date": "MARCH 9, 2015", "cause": "Gunshot", "armed": "Firearm", "long": -82.626085, "sex": "Male"}, {"lat": 40.5190878, "race": "White", "name": "James Damon", "date_index": 63, "date": "MARCH 9, 2015", "cause": "Gunshot", "armed": "Firearm", "long": -107.746374, "sex": "Male"}, {"lat": 40.8683771, "race": "Asian/Pacific Islande", "name": "Hue Dang", "date_index": 63, "date": "MARCH 9, 2015", "cause": "Struck by vehicle", "armed": "No", "long": -74.04172609999999, "sex": "Female"}, {"lat": 28.3512078, "race": "Black", "name": "Cedrick Bishop", "date_index": 63, "date": "MARCH 9, 2015", "cause": "Gunshot", "armed": "Firearm", "long": -80.7487688, "sex": "Male"}, {"lat": 33.8891228, "race": "Black", "name": "Anthony Hill", "date_index": 63, "date": "MARCH 9, 2015", "cause": "Gunshot", "armed": "No", "long": -84.28637739999999, "sex": "Male"}, {"lat": 33.4155919, "race": "White", "name": "William 'Rusty' Smith", "date_index": 64, "date": "MARCH 10, 2015", "cause": "Gunshot", "armed": "Firearm", "long": -86.851196, "sex": "Male"}, {"lat": 41.450155, "race": "Black", "name": "Theodore Johnson", "date_index": 64, "date": "MARCH 10, 2015", "cause": "Gunshot", "armed": "Firearm", "long": -81.640934, "sex": "Male"}, {"lat": 40.7660189, "race": "Black", "name": "Terrance Moxley", "date_index": 64, "date": "MARCH 10, 2015", "cause": "Taser", "armed": "No", "long": -82.5141204, "sex": "Male"}, {"lat": 30.5365144, "race": "Black", "name": "Jamie Croom", "date_index": 64, "date": "MARCH 10, 2015", "cause": "Gunshot", "armed": "Firearm", "long": -91.16944939999999, "sex": "Male"}, {"lat": 34.0501046, "race": "Hispanic/Latino", "name": "Edixon Franco", "date_index": 64, "date": "MARCH 10, 2015", "cause": "Gunshot", "armed": "Other", "long": -117.6546866, "sex": "Male"}, {"lat": 32.165743, "race": "White", "name": "Christopher Mitchell", "date_index": 64, "date": "MARCH 10, 2015", "cause": "Gunshot", "armed": "Knife", "long": -81.184129, "sex": "Male"}, {"lat": 39.5734576, "race": "Black", "name": "Terry Garnett Jr", "date_index": 65, "date": "MARCH 11, 2015", "cause": "Gunshot", "armed": "Vehicle", "long": -75.81578499999999, "sex": "Male"}, {"lat": 35.2040803, "race": "White", "name": "Ryan Burgess", "date_index": 65, "date": "MARCH 11, 2015", "cause": "Gunshot", "armed": "Non-lethal firearm", "long": -114.0250334, "sex": "Male"}, {"lat": 35.157862, "race": "White", "name": "James Greenwell", "date_index": 65, "date": "MARCH 11, 2015", "cause": "Gunshot", "armed": "Firearm", "long": -90.00040899999999, "sex": "Male"}, {"lat": 30.860283, "race": "White", "name": "Gilbert Fleury", "date_index": 65, "date": "MARCH 11, 2015", "cause": "Gunshot", "armed": "Firearm", "long": -87.8912, "sex": "Male"}, {"lat": 33.7433658, "race": "Hispanic/Latino", "name": "Benito Osorio", "date_index": 65, "date": "MARCH 11, 2015", "cause": "Gunshot", "armed": "Firearm", "long": -117.8676593, "sex": "Male"}, {"lat": 33.939187, "race": "Hispanic/Latino", "name": "Aaron Valdez", "date_index": 65, "date": "MARCH 11, 2015", "cause": "Gunshot", "armed": "Vehicle", "long": -118.2177746, "sex": "Male"}, {"lat": 32.7283168, "race": "Black", "name": "Jonathan Paul", "date_index": 66, "date": "MARCH 12, 2015", "cause": "Death in custody", "armed": "No", "long": -97.1047279, "sex": "Male"}, {"lat": 38.8812594, "race": "Black", "name": "Bobby Gross", "date_index": 66, "date": "MARCH 12, 2015", "cause": "Gunshot", "armed": "Other", "long": -76.9854927, "sex": "Male"}, {"lat": 34.027914, "race": "Hispanic/Latino", "name": "Antonio Perez", "date_index": 66, "date": "MARCH 12, 2015", "cause": "Gunshot", "armed": "No", "long": -118.2734572, "sex": "Male"}, {"lat": 34.0567701, "race": "Hispanic/Latino", "name": "Salome Rodriguez Jr", "date_index": 67, "date": "MARCH 13, 2015", "cause": "Gunshot", "armed": "No", "long": -117.7509489, "sex": "Male"}, {"lat": 38.306117, "race": "Hispanic/Latino", "name": "James Jimenez", "date_index": 67, "date": "MARCH 13, 2015", "cause": "Gunshot", "armed": "Firearm", "long": -122.274455, "sex": "Male"}, {"lat": 38.94744499999999, "race": "White", "name": "Fred Liggett Jr", "date_index": 67, "date": "MARCH 13, 2015", "cause": "Gunshot", "armed": "Unknown", "long": -94.486698, "sex": "Male"}, {"lat": 40.3232734, "race": "White", "name": "Clifton Reintzel", "date_index": 67, "date": "MARCH 13, 2015", "cause": "Gunshot", "armed": "Knife", "long": -80.5951693, "sex": "Male"}, {"lat": 34.07761199999999, "race": "White", "name": "Andrew Driver", "date_index": 67, "date": "MARCH 13, 2015", "cause": "Gunshot", "armed": "Knife", "long": -117.4297096, "sex": "Male"}, {"lat": 29.5135105, "race": "Hispanic/Latino", "name": "Richard Castilleja", "date_index": 68, "date": "MARCH 14, 2015", "cause": "Gunshot", "armed": "Firearm", "long": -98.5356937, "sex": "Male"}, {"lat": 42.5835498, "race": "White", "name": "Aaron Siler", "date_index": 68, "date": "MARCH 14, 2015", "cause": "Gunshot", "armed": "Unknown", "long": -87.835691, "sex": "Male"}, {"lat": 31.32498769999999, "race": "White", "name": "Troy Boyd", "date_index": 69, "date": "MARCH 15, 2015", "cause": "Gunshot", "armed": "Other", "long": -90.3159206, "sex": "Male"}, {"lat": 41.269347, "race": "White", "name": "David Werblow", "date_index": 69, "date": "MARCH 15, 2015", "cause": "Taser", "armed": "No", "long": -72.842893, "sex": "Male"}, {"lat": 35.203621, "race": "White", "name": "William Poole", "date_index": 70, "date": "MARCH 16, 2015", "cause": "Gunshot", "armed": "Firearm", "long": -81.24166579999999, "sex": "Male"}, {"lat": 21.3068158, "race": "Asian/Pacific Islande", "name": "Sheldon Haleck", "date_index": 70, "date": "MARCH 16, 2015", "cause": "Taser", "armed": "No", "long": -157.8587339, "sex": "Male"}, {"lat": 44.953802, "race": "White", "name": "Justin Tolkinen", "date_index": 70, "date": "MARCH 16, 2015", "cause": "Gunshot", "armed": "Firearm", "long": -93.025655, "sex": "Male"}, {"lat": 38.6837799, "race": "Hispanic/Latino", "name": "Roberto Leon", "date_index": 71, "date": "MARCH 17, 2015", "cause": "Gunshot", "armed": "No", "long": -121.4384124, "sex": "Male"}, {"lat": 35.3760296, "race": "White", "name": "Jeff Alexander", "date_index": 71, "date": "MARCH 17, 2015", "cause": "Gunshot", "armed": "Knife", "long": -119.0148139, "sex": "Male"}, {"lat": 30.81440899999999, "race": "White", "name": "Eugene Smith II", "date_index": 71, "date": "MARCH 17, 2015", "cause": "Gunshot", "armed": "Firearm", "long": -95.103588, "sex": "Male"}, {"lat": 34.6411781, "race": "White", "name": "Declan Owen", "date_index": 71, "date": "MARCH 17, 2015", "cause": "Gunshot", "armed": "Firearm", "long": -78.75131329999999, "sex": "Male"}, {"lat": 32.3844982, "race": "White", "name": "David Watford", "date_index": 71, "date": "MARCH 17, 2015", "cause": "Struck by vehicle", "armed": "No", "long": -91.1993638, "sex": "Male"}, {"lat": 34.218567, "race": "Black", "name": "Askari Roberts", "date_index": 71, "date": "MARCH 17, 2015", "cause": "Taser", "armed": "No", "long": -85.386994, "sex": "Male"}, {"lat": 39.2870362, "race": "White", "name": "Andrew Shipley", "date_index": 71, "date": "MARCH 17, 2015", "cause": "Gunshot", "armed": "Firearm", "long": -76.5924047, "sex": "Male"}, {"lat": 37.789615, "race": "White", "name": "Alice Brown", "date_index": 71, "date": "MARCH 17, 2015", "cause": "Gunshot", "armed": "Vehicle", "long": -122.4225885, "sex": "Female"}, {"lat": 33.5812961, "race": "White", "name": "Kaylene Stone", "date_index": 72, "date": "MARCH 18, 2015", "cause": "Gunshot", "armed": "Firearm", "long": -112.20338, "sex": "Female"}, {"lat": 30.4613998, "race": "White", "name": "Garland Wingo", "date_index": 72, "date": "MARCH 18, 2015", "cause": "Gunshot", "armed": "Firearm", "long": -84.27956069999999, "sex": "Male"}, {"lat": 43.703866, "race": "White", "name": "Brandon Rapp", "date_index": 72, "date": "MARCH 18, 2015", "cause": "Gunshot", "armed": "Firearm", "long": -116.581288, "sex": "Male"}, {"lat": 34.56553, "race": "White", "name": "Shane Watkins", "date_index": 73, "date": "MARCH 19, 2015", "cause": "Gunshot", "armed": "Knife", "long": -87.2870169, "sex": "Male"}, {"lat": 35.3535612, "race": "White", "name": "Robert Burdge", "date_index": 73, "date": "MARCH 19, 2015", "cause": "Gunshot", "armed": "Firearm", "long": -119.3313917, "sex": "Male"}, {"lat": 30.3749652, "race": "Black", "name": "Kendre Alston", "date_index": 73, "date": "MARCH 19, 2015", "cause": "Gunshot", "armed": "Firearm", "long": -81.6853386, "sex": "Male"}, {"lat": 36.4704053, "race": "Native", "name": "Justin Fowler", "date_index": 73, "date": "MARCH 19, 2015", "cause": "Gunshot", "armed": "Firearm", "long": -109.1381992, "sex": "America"}, {"lat": 49.0000614, "race": "White", "name": "Jamison Childress", "date_index": 73, "date": "MARCH 19, 2015", "cause": "Gunshot", "armed": "Other", "long": -122.2796586, "sex": "Male"}, {"lat": 41.5283295, "race": "Black", "name": "Brandon Jones", "date_index": 73, "date": "MARCH 19, 2015", "cause": "Gunshot", "armed": "No", "long": -81.6093545, "sex": "Male"}, {"lat": 41.148575, "race": "White", "name": "Adam Jovicic", "date_index": 73, "date": "MARCH 19, 2015", "cause": "Gunshot", "armed": "No", "long": -81.42987590000001, "sex": "Male"}, {"lat": 34.4764849, "race": "White", "name": "Tyrel Vick", "date_index": 74, "date": "MARCH 20, 2015", "cause": "Gunshot", "armed": "Firearm", "long": -96.39346379999999, "sex": "Male"}, {"lat": 29.9922012, "race": "Black", "name": "Richard White", "date_index": 74, "date": "MARCH 20, 2015", "cause": "Gunshot", "armed": "Knife", "long": -90.25901119999999, "sex": "Male"}, {"lat": 40.0295055, "race": "White", "name": "Jason Smith", "date_index": 74, "date": "MARCH 20, 2015", "cause": "Gunshot", "armed": "Firearm", "long": -82.9989271, "sex": "Male"}, {"lat": 38.1320805, "race": "White", "name": "Phillip Conley", "date_index": 75, "date": "MARCH 21, 2015", "cause": "Gunshot", "armed": "Knife", "long": -122.2217215, "sex": "Male"}, {"lat": 43.191919, "race": "White", "name": "James Ellis", "date_index": 75, "date": "MARCH 21, 2015", "cause": "Gunshot", "armed": "Firearm", "long": -78.032726, "sex": "Male"}, {"lat": 39.533257, "race": "White", "name": "Gary Page", "date_index": 75, "date": "MARCH 21, 2015", "cause": "Gunshot", "armed": "Firearm", "long": -87.07441399999999, "sex": "Male"}, {"lat": 34.7130206, "race": "White", "name": "Enoch Gaver", "date_index": 75, "date": "MARCH 21, 2015", "cause": "Gunshot", "armed": "Firearm", "long": -112.0013851, "sex": "Male"}, {"lat": 36.7247275, "race": "White", "name": "Jeffrey Jackson", "date_index": 76, "date": "MARCH 22, 2015", "cause": "Death in custody", "armed": "No", "long": -84.12772799999999, "sex": "Male"}, {"lat": 36.0771603, "race": "White", "name": "James Moore", "date_index": 76, "date": "MARCH 22, 2015", "cause": "Struck by vehicle", "armed": "No", "long": -95.95860929999999, "sex": "Male"}, {"lat": 37.3613746, "race": "Black", "name": "Devin Gates", "date_index": 76, "date": "MARCH 22, 2015", "cause": "Gunshot", "armed": "Firearm", "long": -121.9590593, "sex": "Male"}, {"lat": 40.739615, "race": "Black", "name": "Denzel Brown", "date_index": 76, "date": "MARCH 22, 2015", "cause": "Gunshot", "armed": "No", "long": -73.238401, "sex": "Male"}, {"lat": 45.505862, "race": "White", "name": "Christopher Healy", "date_index": 76, "date": "MARCH 22, 2015", "cause": "Gunshot", "armed": "Knife", "long": -122.5299411, "sex": "Male"}, {"lat": 45.6303872, "race": "White", "name": "Mychael Lynch", "date_index": 77, "date": "MARCH 23, 2015", "cause": "Death in custody", "armed": "No", "long": -122.6786306, "sex": "Male"}, {"lat": 36.818674, "race": "Black", "name": "Walter Brown III", "date_index": 78, "date": "MARCH 24, 2015", "cause": "Gunshot", "armed": "Firearm", "long": -76.3703338, "sex": "Male"}, {"lat": 43.7822464, "race": "White", "name": "Steven Snyder", "date_index": 78, "date": "MARCH 24, 2015", "cause": "Gunshot", "armed": "Firearm", "long": -88.4760531, "sex": "Male"}, {"lat": 37.301491, "race": "White", "name": "Scott Dunham", "date_index": 78, "date": "MARCH 24, 2015", "cause": "Gunshot", "armed": "Firearm", "long": -121.84095, "sex": "Male"}, {"lat": 33.864415, "race": "Black", "name": "Nicholas Thomas", "date_index": 78, "date": "MARCH 24, 2015", "cause": "Gunshot", "armed": "Vehicle", "long": -84.4780028, "sex": "Male"}, {"lat": 33.583542, "race": "White", "name": "Joseph Tassinari", "date_index": 78, "date": "MARCH 24, 2015", "cause": "Gunshot", "armed": "Firearm", "long": -112.200691, "sex": "Male"}, {"lat": 33.9435935, "race": "Hispanic/Latino", "name": "Victor Terrazas", "date_index": 79, "date": "MARCH 25, 2015", "cause": "Gunshot", "armed": "Firearm", "long": -118.2912956, "sex": "Male"}, {"lat": 33.819014, "race": "Black", "name": "Jeremy Kelly", "date_index": 79, "date": "MARCH 25, 2015", "cause": "Gunshot", "armed": "Firearm", "long": -79.462408, "sex": "Male"}, {"lat": 38.818053, "race": "White", "name": "Deanne Choate", "date_index": 80, "date": "MARCH 26, 2015", "cause": "Gunshot", "armed": "Firearm", "long": -94.91006999999999, "sex": "Female"}, {"lat": 33.793446, "race": "Hispanic/Latino", "name": "Adrian Solis", "date_index": 80, "date": "MARCH 26, 2015", "cause": "Gunshot", "armed": "Knife", "long": -118.271286, "sex": "Male"}, {"lat": 42.0558829, "race": "White", "name": "Neil Seifert", "date_index": 81, "date": "MARCH 27, 2015", "cause": "Gunshot", "armed": "Firearm", "long": -71.87817509999999, "sex": "Male"}, {"lat": 34.227815, "race": "Black", "name": "Meagan Hockaday", "date_index": 81, "date": "MARCH 27, 2015", "cause": "Gunshot", "armed": "Knife", "long": -119.182885, "sex": "Female"}, {"lat": 27.433186, "race": "Black", "name": "Jamalis Hall", "date_index": 81, "date": "MARCH 27, 2015", "cause": "Gunshot", "armed": "Knife", "long": -80.329177, "sex": "Male"}, {"lat": 39.4823458, "race": "White", "name": "Harvey Oates", "date_index": 81, "date": "MARCH 27, 2015", "cause": "Gunshot", "armed": "Firearm", "long": -78.8095903, "sex": "Male"}, {"lat": 33.0497858, "race": "White", "name": "Gary Kendrick", "date_index": 81, "date": "MARCH 27, 2015", "cause": "Gunshot", "armed": "Firearm", "long": -117.2415468, "sex": "Male"}, {"lat": 33.563751, "race": "Black", "name": "Douglas Harris", "date_index": 81, "date": "MARCH 27, 2015", "cause": "Gunshot", "armed": "Firearm", "long": -86.72380799999999, "sex": "Male"}, {"lat": 42.31261809999999, "race": "Black", "name": "Angelo West", "date_index": 81, "date": "MARCH 27, 2015", "cause": "Gunshot", "armed": "Firearm", "long": -71.08992239999999, "sex": "Male"}, {"lat": 35.395577, "race": "Hispanic/Latino", "name": "Adrian Hernandez", "date_index": 81, "date": "MARCH 27, 2015", "cause": "Gunshot", "armed": "Non-lethal firearm", "long": -119.0027619, "sex": "Male"}, {"lat": 39.0826401, "race": "White", "name": "Robert Rooker", "date_index": 82, "date": "MARCH 29, 2015", "cause": "Gunshot", "armed": "Vehicle", "long": -83.2546804, "sex": "Male"}, {"lat": 37.7340086, "race": "Black", "name": "Byron Herbert", "date_index": 82, "date": "MARCH 29, 2015", "cause": "Gunshot", "armed": "Firearm", "long": -85.8890606, "sex": "Male"}, {"lat": 39.1137602, "race": "Black", "name": "Mya Hall", "date_index": 83, "date": "MARCH 30, 2015", "cause": "Gunshot", "armed": "Vehicle", "long": -76.7267773, "sex": "Female"}, {"lat": 35.9727279, "race": "White", "name": "John Allen", "date_index": 83, "date": "MARCH 30, 2015", "cause": "Gunshot", "armed": "Firearm", "long": -114.841453, "sex": "Male"}, {"lat": 37.69104900000001, "race": "Black", "name": "Jason Moland", "date_index": 83, "date": "MARCH 30, 2015", "cause": "Gunshot", "armed": "Non-lethal firearm", "long": -120.97069, "sex": "Male"}, {"lat": 41.44769000000001, "race": "White", "name": "Gregory Smith", "date_index": 83, "date": "MARCH 30, 2015", "cause": "Taser", "armed": "No", "long": -87.36915599999999, "sex": "Male"}, {"lat": 38.4842613, "race": "Black", "name": "Dominick Wise", "date_index": 83, "date": "MARCH 30, 2015", "cause": "Taser", "armed": "No", "long": -77.9794982, "sex": "Male"}, {"lat": 44.0892947, "race": "White", "name": "Brian Babb", "date_index": 83, "date": "MARCH 30, 2015", "cause": "Gunshot", "armed": "Firearm", "long": -123.181167, "sex": "Male"}, {"lat": 39.484823, "race": "Black", "name": "Phillip White", "date_index": 84, "date": "MARCH 31, 2015", "cause": "Death in custody", "armed": "No", "long": -75.0345679, "sex": "Male"}, {"lat": 28.102251, "race": "White", "name": "Jeremy Anderson", "date_index": 84, "date": "MARCH 31, 2015", "cause": "Gunshot", "armed": "Firearm", "long": -82.489902, "sex": "Male"}, {"lat": 29.7330608, "race": "Hispanic/Latino", "name": "Benjamin Quezada", "date_index": 84, "date": "MARCH 31, 2015", "cause": "Gunshot", "armed": "Non-lethal firearm", "long": -94.970686, "sex": "Male"}, {"lat": 40.2159701, "race": "White", "name": "Shawn Clyde", "date_index": 85, "date": "APRIL 1, 2015", "cause": "Gunshot", "armed": "Knife", "long": -74.71067719999999, "sex": "Male"}, {"lat": 33.9019421, "race": "Black", "name": "Robert Washington", "date_index": 85, "date": "APRIL 1, 2015", "cause": "Gunshot", "armed": "Firearm", "long": -118.3373131, "sex": "Male"}, {"lat": 36.1820457, "race": "Black", "name": "Eric Harris", "date_index": 86, "date": "APRIL 2, 2015", "cause": "Gunshot", "armed": "No", "long": -95.9403335, "sex": "Male"}, {"lat": 37.17601020000001, "race": "White", "name": "Donald Hicks", "date_index": 86, "date": "APRIL 2, 2015", "cause": "Gunshot", "armed": "Firearm", "long": -88.6766482, "sex": "Male"}, {"lat": 42.661048, "race": "Black", "name": "Donald 'Dontay' Ivy", "date_index": 86, "date": "APRIL 2, 2015", "cause": "Taser", "armed": "No", "long": -73.757971, "sex": "Male"}, {"lat": 41.4996084, "race": "Black", "name": "Darrin Langford", "date_index": 86, "date": "APRIL 2, 2015", "cause": "Gunshot", "armed": "Firearm", "long": -90.5816248, "sex": "Male"}, {"lat": 31.3449566, "race": "White", "name": "Aaron Rutledge", "date_index": 86, "date": "APRIL 2, 2015", "cause": "Gunshot", "armed": "Firearm", "long": -92.4057285, "sex": "Male"}, {"lat": 33.6546101, "race": "White", "name": "Ken Cockerel", "date_index": 87, "date": "APRIL 3, 2015", "cause": "Gunshot", "armed": "Knife", "long": -112.1432014, "sex": "Male"}, {"lat": 35.5368959, "race": "White", "name": "David Lynch", "date_index": 87, "date": "APRIL 3, 2015", "cause": "Taser", "armed": "No", "long": -95.3096415, "sex": "Male"}, {"lat": 39.190786, "race": "White", "name": "Christopher Prevatt", "date_index": 87, "date": "APRIL 3, 2015", "cause": "Gunshot", "armed": "Other", "long": -78.128479, "sex": "Male"}, {"lat": 48.4618195, "race": "Native", "name": "William Dick III", "date_index": 88, "date": "APRIL 4, 2015", "cause": "Taser", "armed": "No", "long": -119.0012171, "sex": "America"}, {"lat": 32.8991022, "race": "Black", "name": "Walter Scott", "date_index": 88, "date": "APRIL 4, 2015", "cause": "Gunshot", "armed": "No", "long": -80.01367189999999, "sex": "Male"}, {"lat": 33.8376582, "race": "Black", "name": "Paul Anderson", "date_index": 88, "date": "APRIL 4, 2015", "cause": "Gunshot", "armed": "Firearm", "long": -117.9098221, "sex": "Male"}, {"lat": 42.453936, "race": "Black", "name": "Justus Howell", "date_index": 88, "date": "APRIL 4, 2015", "cause": "Gunshot", "armed": "Firearm", "long": -87.843942, "sex": "Male"}, {"lat": 35.0539409, "race": "White", "name": "Ethan Noll", "date_index": 88, "date": "APRIL 4, 2015", "cause": "Gunshot", "armed": "Firearm", "long": -106.1946583, "sex": "Male"}, {"lat": 43.6410876, "race": "White", "name": "Tyrell Larsen", "date_index": 89, "date": "APRIL 6, 2015", "cause": "Gunshot", "armed": "Firearm", "long": -111.9077306, "sex": "Male"}, {"lat": 35.1276518, "race": "White", "name": "Richard Hanna", "date_index": 89, "date": "APRIL 6, 2015", "cause": "Gunshot", "armed": "No", "long": -118.4142231, "sex": "Male"}, {"lat": 29.31112419999999, "race": "White", "name": "Jared Forsyth", "date_index": 89, "date": "APRIL 6, 2015", "cause": "Gunshot", "armed": "No", "long": -82.19836269999999, "sex": "Male"}, {"lat": 29.8768718, "race": "Black", "name": "Desmond Willis", "date_index": 89, "date": "APRIL 6, 2015", "cause": "Gunshot", "armed": "Firearm", "long": -90.04821179999999, "sex": "Male"}, {"lat": 39.6819503, "race": "White", "name": "Alexander Myers", "date_index": 89, "date": "APRIL 6, 2015", "cause": "Gunshot", "armed": "Firearm", "long": -86.2734457, "sex": "Male"}, {"lat": 35.3331016, "race": "White", "name": "Erick Rose", "date_index": 90, "date": "APRIL 7, 2015", "cause": "Gunshot", "armed": "Firearm", "long": -97.06477699999999, "sex": "Male"}, {"lat": 34.0400818, "race": "Hispanic/Latino", "name": "Roberto Rodriguez", "date_index": 91, "date": "APRIL 8, 2015", "cause": "Gunshot", "armed": "Firearm", "long": -118.2105889, "sex": "Male"}, {"lat": 35.6438625, "race": "White", "name": "Michael Le Mon", "date_index": 91, "date": "APRIL 8, 2015", "cause": "Taser", "armed": "No", "long": -118.4139487, "sex": "Male"}, {"lat": 35.9593409, "race": "White", "name": "Mark Smith", "date_index": 91, "date": "APRIL 8, 2015", "cause": "Gunshot", "armed": "Vehicle", "long": -96.2797279, "sex": "Male"}, {"lat": 48.2170522, "race": "White", "name": "Keaton Farris", "date_index": 91, "date": "APRIL 8, 2015", "cause": "Death in custody", "armed": "No", "long": -122.6861245, "sex": "Male"}, {"lat": 37.4034995, "race": "White", "name": "Joseph Weber", "date_index": 91, "date": "APRIL 8, 2015", "cause": "Gunshot", "armed": "Knife", "long": -121.9957169, "sex": "Male"}, {"lat": 29.4893826, "race": "White", "name": "Douglas Faith", "date_index": 91, "date": "APRIL 8, 2015", "cause": "Gunshot", "armed": "Firearm", "long": -98.4277322, "sex": "Male"}, {"lat": 30.8440999, "race": "Black", "name": "Dexter Bethea", "date_index": 91, "date": "APRIL 8, 2015", "cause": "Gunshot", "armed": "Vehicle", "long": -83.3317945, "sex": "Male"}, {"lat": 35.022749, "race": "White", "name": "Phillip Burgess", "date_index": 92, "date": "APRIL 9, 2015", "cause": "Gunshot", "armed": "Firearm", "long": -82.00614, "sex": "Male"}, {"lat": 39.8587225, "race": "White", "name": "Jess Leipold", "date_index": 92, "date": "APRIL 9, 2015", "cause": "Gunshot", "armed": "Firearm", "long": -77.158166, "sex": "Male"}, {"lat": 30.413037, "race": "White", "name": "Gordon Kimbrell Jr", "date_index": 92, "date": "APRIL 9, 2015", "cause": "Gunshot", "armed": "Other", "long": -86.83489500000002, "sex": "Male"}, {"lat": 40.8758674, "race": "Black", "name": "Don Smith", "date_index": 92, "date": "APRIL 9, 2015", "cause": "Gunshot", "armed": "Firearm", "long": -86.8776453, "sex": "Male"}, {"lat": 39.0621932, "race": "White", "name": "Richard Reed", "date_index": 93, "date": "APRIL 10, 2015", "cause": "Gunshot", "armed": "Firearm", "long": -95.7616353, "sex": "Male"}, {"lat": 39.93626099999999, "race": "Hispanic/Latino", "name": "Angel Corona Jr", "date_index": 93, "date": "APRIL 10, 2015", "cause": "Gunshot", "armed": "Knife", "long": -122.20132, "sex": "Male"}, {"lat": 36.0902023, "race": "White", "name": "Donald Allen", "date_index": 94, "date": "APRIL 11, 2015", "cause": "Gunshot", "armed": "Firearm", "long": -96.1369189, "sex": "Male"}, {"lat": 35.3752345, "race": "White", "name": "Richard 'Buddy' Weaver", "date_index": 95, "date": "APRIL 12, 2015", "cause": "Gunshot", "armed": "Other", "long": -97.17207979999999, "sex": "Male"}, {"lat": 39.811602, "race": "Black", "name": "Mack Long", "date_index": 95, "date": "APRIL 12, 2015", "cause": "Gunshot", "armed": "Firearm", "long": -86.1025789, "sex": "Male"}, {"lat": 35.0643806, "race": "White", "name": "Jason Evans", "date_index": 95, "date": "APRIL 12, 2015", "cause": "Gunshot", "armed": "Firearm", "long": -78.4907834, "sex": "Male"}, {"lat": 39.3079735, "race": "Black", "name": "Freddie Gray", "date_index": 95, "date": "APRIL 12, 2015", "cause": "Death in custody", "armed": "No", "long": -76.6448751, "sex": "Male"}, {"lat": 38.8922047, "race": "Hispanic/Latino", "name": "Isaac Jimenez", "date_index": 96, "date": "APRIL 13, 2015", "cause": "Gunshot", "armed": "Firearm", "long": -90.1353895, "sex": "Male"}, {"lat": 29.9495789, "race": "Hispanic/Latino", "name": "Celin Nunez", "date_index": 96, "date": "APRIL 13, 2015", "cause": "Gunshot", "armed": "Other", "long": -95.4161719, "sex": "Male"}, {"lat": 41.741558, "race": "Black", "name": "Karl Taylor", "date_index": 97, "date": "APRIL 14, 2015", "cause": "Death in custody", "armed": "Other", "long": -74.58948199999999, "sex": "Male"}, {"lat": 32.6634958, "race": "Black", "name": "Colby Robinson", "date_index": 97, "date": "APRIL 14, 2015", "cause": "Gunshot", "armed": "Unknown", "long": -96.82129619999999, "sex": "Male"}, {"lat": 35.834247, "race": "White", "name": "Christopher Finley", "date_index": 97, "date": "APRIL 14, 2015", "cause": "Gunshot", "armed": "Other", "long": -90.71736, "sex": "Male"}, {"lat": 25.8432468, "race": "Black", "name": "Tevin Barkley", "date_index": 98, "date": "APRIL 15, 2015", "cause": "Gunshot", "armed": "Firearm", "long": -80.21187429999999, "sex": "Male"}, {"lat": 38.9484747, "race": "White", "name": "Mark Adair", "date_index": 98, "date": "APRIL 15, 2015", "cause": "Gunshot", "armed": "Firearm", "long": -92.3255537, "sex": "Male"}, {"lat": 34.1207959, "race": "White", "name": "Joseph Slater", "date_index": 98, "date": "APRIL 15, 2015", "cause": "Death in custody", "armed": "No", "long": -117.1986572, "sex": "Male"}, {"lat": 29.8063733, "race": "Black", "name": "Frank 'Trey' Shephard III", "date_index": 98, "date": "APRIL 15, 2015", "cause": "Gunshot", "armed": "No", "long": -95.1731913, "sex": "Male"}, {"lat": 34.051127, "race": "Hispanic/Latino", "name": "Ernesto Flores", "date_index": 98, "date": "APRIL 15, 2015", "cause": "Gunshot", "armed": "Non-lethal firearm", "long": -117.720723, "sex": "Male"}, {"lat": 34.9038585, "race": "Black", "name": "Donte Noble", "date_index": 98, "date": "APRIL 15, 2015", "cause": "Gunshot", "armed": "Knife", "long": -81.91123759999999, "sex": "Male"}, {"lat": 35.4998488, "race": "Hispanic/Latino", "name": "Rodolfo Velazquez", "date_index": 99, "date": "APRIL 16, 2015", "cause": "Gunshot", "armed": "Knife", "long": -119.2805294, "sex": "Male"}, {"lat": 42.0952132, "race": "White", "name": "David Kapuscinski", "date_index": 99, "date": "APRIL 16, 2015", "cause": "Taser", "armed": "No", "long": -83.2007217, "sex": "Male"}, {"lat": 39.649378, "race": "Black", "name": "Darrell Brown", "date_index": 99, "date": "APRIL 16, 2015", "cause": "Taser", "armed": "No", "long": -77.720444, "sex": "Male"}, {"lat": 38.7239801, "race": "Black", "name": "Thaddeus McCarroll", "date_index": 100, "date": "APRIL 17, 2015", "cause": "Gunshot", "armed": "Knife", "long": -90.2448945, "sex": "Male"}, {"lat": 41.760724, "race": "Black", "name": "Jeffery Kemp", "date_index": 100, "date": "APRIL 17, 2015", "cause": "Gunshot", "armed": "Firearm", "long": -87.5724757, "sex": "Male"}, {"lat": 33.7439978, "race": "Hispanic/Latino", "name": "Elias Cavazos", "date_index": 100, "date": "APRIL 17, 2015", "cause": "Gunshot", "armed": "Firearm", "long": -116.954295, "sex": "Male"}, {"lat": 30.170123, "race": "White", "name": "Grover Sapp Jr", "date_index": 101, "date": "APRIL 18, 2015", "cause": "Gunshot", "armed": "Firearm", "long": -85.701208, "sex": "Male"}, {"lat": 33.4802298, "race": "White", "name": "Erik Tellez", "date_index": 101, "date": "APRIL 18, 2015", "cause": "Gunshot", "armed": "Firearm", "long": -112.0388414, "sex": "Male"}, {"lat": 29.592751, "race": "Black", "name": "Norman Cooper", "date_index": 102, "date": "APRIL 19, 2015", "cause": "Taser", "armed": "No", "long": -98.402546, "sex": "Male"}, {"lat": 37.8668458, "race": "White", "name": "Michael Foster", "date_index": 102, "date": "APRIL 19, 2015", "cause": "Gunshot", "armed": "Firearm", "long": -84.6609093, "sex": "Male"}, {"lat": 41.1220566, "race": "White", "name": "Dana Hlavinka", "date_index": 102, "date": "APRIL 19, 2015", "cause": "Gunshot", "armed": "Knife", "long": -102.9828958, "sex": "Male"}, {"lat": 26.2159066, "race": "Hispanic/Latino", "name": "Santos 'Cuate' Cortez Hernandez", "date_index": 103, "date": "APRIL 20, 2015", "cause": "Gunshot", "armed": "Firearm", "long": -98.32529319999999, "sex": "Male"}, {"lat": 32.303499, "race": "White", "name": "Steven Davenport", "date_index": 104, "date": "APRIL 21, 2015", "cause": "Taser", "armed": "No", "long": -88.5138571, "sex": "Male"}, {"lat": 41.5219847, "race": "Black", "name": "Samuel Harrell", "date_index": 104, "date": "APRIL 21, 2015", "cause": "Death in custody", "armed": "No", "long": -73.9508704, "sex": "Male"}, {"lat": 32.76692670000001, "race": "Black", "name": "Reginald McGregor", "date_index": 104, "date": "APRIL 21, 2015", "cause": "Gunshot", "armed": "Firearm", "long": -97.3038923, "sex": "Male"}, {"lat": 34.071761, "race": "Hispanic/Latino", "name": "Luis Molina Martinez", "date_index": 104, "date": "APRIL 21, 2015", "cause": "Gunshot", "armed": "Knife", "long": -118.204985, "sex": "Male"}, {"lat": 34.072834, "race": "White", "name": "Kimber Key", "date_index": 104, "date": "APRIL 21, 2015", "cause": "Gunshot", "armed": "Knife", "long": -81.199642, "sex": "Male"}, {"lat": 40.4015135, "race": "White", "name": "David Dehmann", "date_index": 104, "date": "APRIL 21, 2015", "cause": "Death in custody", "armed": "No", "long": -82.4315993, "sex": "Male"}, {"lat": 40.7107181, "race": "Black", "name": "Daniel Wolfe", "date_index": 104, "date": "APRIL 21, 2015", "cause": "Gunshot", "armed": "Vehicle", "long": -74.2534611, "sex": "Male"}, {"lat": 47.160047, "race": "Native", "name": "Daniel Covarrubias", "date_index": 104, "date": "APRIL 21, 2015", "cause": "Gunshot", "armed": "No", "long": -122.484667, "sex": "America"}, {"lat": 36.8293152, "race": "Black", "name": "William Chapman II", "date_index": 105, "date": "APRIL 22, 2015", "cause": "Gunshot", "armed": "No", "long": -76.34229409999999, "sex": "Male"}, {"lat": 39.9384083, "race": "Asian/Pacific Islande", "name": "Lue Vang", "date_index": 105, "date": "APRIL 22, 2015", "cause": "Gunshot", "armed": "Firearm", "long": -105.2575333, "sex": "Male"}, {"lat": 35.7656527, "race": "Hispanic/Latino", "name": "Jose Herrera", "date_index": 105, "date": "APRIL 22, 2015", "cause": "Gunshot", "armed": "No", "long": -119.3220574, "sex": "Male"}, {"lat": 40.7118551, "race": "White", "name": "Jonathan Efraim", "date_index": 105, "date": "APRIL 22, 2015", "cause": "Gunshot", "armed": "Firearm", "long": -73.7900149, "sex": "Male"}, {"lat": 31.4005155, "race": "Hispanic/Latino", "name": "Carlos Ramirez", "date_index": 105, "date": "APRIL 22, 2015", "cause": "Gunshot", "armed": "Knife", "long": -109.9174101, "sex": "Male"}, {"lat": 38.3755115, "race": "White", "name": "Karen Janks", "date_index": 106, "date": "APRIL 23, 2015", "cause": "Gunshot", "armed": "Vehicle", "long": -122.7918351, "sex": "Female"}, {"lat": 34.107651, "race": "White", "name": "Joseph Potts", "date_index": 106, "date": "APRIL 23, 2015", "cause": "Gunshot", "armed": "Firearm", "long": -95.15651299999999, "sex": "Male"}, {"lat": 33.7807968, "race": "Hispanic/Latino", "name": "Hector Morejon", "date_index": 106, "date": "APRIL 23, 2015", "cause": "Gunshot", "armed": "No", "long": -118.1736051, "sex": "Male"}, {"lat": 34.3103392, "race": "White", "name": "Andrew Valadez", "date_index": 106, "date": "APRIL 23, 2015", "cause": "Gunshot", "armed": "Firearm", "long": -118.4531538, "sex": "Male"}, {"lat": 37.17592380000001, "race": "Black", "name": "Todd Dye", "date_index": 107, "date": "APRIL 24, 2015", "cause": "Gunshot", "armed": "Firearm", "long": -104.4925909, "sex": "Male"}, {"lat": 44.9141375, "race": "White", "name": "Mark Hawkins", "date_index": 107, "date": "APRIL 24, 2015", "cause": "Gunshot", "armed": "Firearm", "long": -122.9958251, "sex": "Male"}, {"lat": 36.8974006, "race": "White", "name": "Gary Collins", "date_index": 108, "date": "APRIL 25, 2015", "cause": "Gunshot", "armed": "Firearm", "long": -94.88660999999999, "sex": "Male"}, {"lat": 40.724518, "race": "Black", "name": "David Felix", "date_index": 108, "date": "APRIL 25, 2015", "cause": "Gunshot", "armed": "No", "long": -73.982309, "sex": "Male"}, {"lat": 28.567081, "race": "White", "name": "Daniel Davis", "date_index": 108, "date": "APRIL 25, 2015", "cause": "Gunshot", "armed": "Knife", "long": -81.812325, "sex": "Male"}, {"lat": 28.8776704, "race": "White", "name": "Brandon Lawrence", "date_index": 108, "date": "APRIL 25, 2015", "cause": "Gunshot", "armed": "Other", "long": -97.00159149999999, "sex": "Male"}, {"lat": 33.76186790000001, "race": "White", "name": "Dean Genova", "date_index": 109, "date": "APRIL 26, 2015", "cause": "Gunshot", "armed": "No", "long": -117.954321, "sex": "Male"}, {"lat": 35.6826766, "race": "White", "name": "Billy Patrick", "date_index": 109, "date": "APRIL 26, 2015", "cause": "Gunshot", "armed": "No", "long": -94.7608801, "sex": "Male"}, {"lat": 36.2109734, "race": "White", "name": "Albert Hanson Jr", "date_index": 109, "date": "APRIL 26, 2015", "cause": "Gunshot", "armed": "Firearm", "long": -119.5828549, "sex": "Male"}, {"lat": 42.36472759999999, "race": "Black", "name": "Terrance Kellom", "date_index": 110, "date": "APRIL 27, 2015", "cause": "Gunshot", "armed": "Other", "long": -83.2360175, "sex": "Male"}, {"lat": 37.7309131, "race": "White", "name": "Joshua Green", "date_index": 111, "date": "APRIL 28, 2015", "cause": "Gunshot", "armed": "Firearm", "long": -88.9412634, "sex": "Male"}, {"lat": 30.0133346, "race": "Black", "name": "Jared Johnson", "date_index": 111, "date": "APRIL 28, 2015", "cause": "Gunshot", "armed": "Firearm", "long": -89.98848009999999, "sex": "Male"}, {"lat": 40.7386679, "race": "White", "name": "David Parker", "date_index": 111, "date": "APRIL 28, 2015", "cause": "Gunshot", "armed": "Firearm", "long": -82.51562899999999, "sex": "Male"}, {"lat": 31.518615, "race": "Black", "name": "Bryan Overstreet", "date_index": 111, "date": "APRIL 28, 2015", "cause": "Struck by vehicle", "armed": "No", "long": -83.8360943, "sex": "Male"}, {"lat": 38.3709689, "race": "Hispanic/Latino", "name": "Luis Chavez-Diaz", "date_index": 112, "date": "APRIL 29, 2015", "cause": "Gunshot", "armed": "Firearm", "long": -121.4954952, "sex": "Male"}, {"lat": 33.3895851, "race": "Native", "name": "Joshua Deysie", "date_index": 112, "date": "APRIL 29, 2015", "cause": "Gunshot", "armed": "Firearm", "long": -111.8007654, "sex": "America"}, {"lat": 35.0400774, "race": "White", "name": "Andrew Jackson", "date_index": 112, "date": "APRIL 29, 2015", "cause": "Gunshot", "armed": "Knife", "long": -97.94790669999999, "sex": "Male"}, {"lat": 36.054037, "race": "White", "name": "John Acree", "date_index": 113, "date": "APRIL 30, 2015", "cause": "Gunshot", "armed": "Firearm", "long": -86.778671, "sex": "Male"}, {"lat": 36.6106652, "race": "Black", "name": "Jeffery Adkins", "date_index": 113, "date": "APRIL 30, 2015", "cause": "Gunshot", "armed": "Firearm", "long": -77.5012872, "sex": "Male"}, {"lat": 32.7542769, "race": "White", "name": "Fridoon Rawshannehad", "date_index": 113, "date": "APRIL 30, 2015", "cause": "Gunshot", "armed": "No", "long": -117.2051222, "sex": "Male"}, {"lat": 31.7398381, "race": "Hispanic/Latino", "name": "Erick Sanchez", "date_index": 113, "date": "APRIL 30, 2015", "cause": "Gunshot", "armed": "Other", "long": -106.3111531, "sex": "Male"}, {"lat": 33.7513931, "race": "Black", "name": "Alexia Christian", "date_index": 113, "date": "APRIL 30, 2015", "cause": "Gunshot", "armed": "Firearm", "long": -84.3913883, "sex": "Female"}, {"lat": 39.2799203, "race": "White", "name": "Kenneth Mathena", "date_index": 114, "date": "MAY 2, 2015", "cause": "Gunshot", "armed": "Firearm", "long": -75.60270360000001, "sex": "Male"}, {"lat": 32.9593136, "race": "Asian/Pacific Islande", "name": "Nadir Soofi", "date_index": 115, "date": "MAY 3, 2015", "cause": "Gunshot", "armed": "Firearm", "long": -96.6418415, "sex": "Male"}, {"lat": 40.3034177, "race": "White", "name": "Kevin Norton", "date_index": 115, "date": "MAY 3, 2015", "cause": "Gunshot", "armed": "Firearm", "long": -109.995303, "sex": "Male"}, {"lat": 32.9593136, "race": "Black", "name": "Elton Simpson", "date_index": 115, "date": "MAY 3, 2015", "cause": "Gunshot", "armed": "Firearm", "long": -96.6418415, "sex": "Male"}, {"lat": 35.0517588, "race": "White", "name": "Billy Grimm", "date_index": 115, "date": "MAY 3, 2015", "cause": "Gunshot", "armed": "Disputed", "long": -106.6883555, "sex": "Male"}, {"lat": 46.201609, "race": "White", "name": "Roark Cook", "date_index": 116, "date": "MAY 4, 2015", "cause": "Gunshot", "armed": "Non-lethal firearm", "long": -119.1683519, "sex": "Male"}, {"lat": 37.3798439, "race": "White", "name": "Michael Asher", "date_index": 116, "date": "MAY 4, 2015", "cause": "Gunshot", "armed": "Firearm", "long": -83.2449759, "sex": "Male"}, {"lat": 34.0536407, "race": "Asian/Pacific Islande", "name": "Thong Kien Ma", "date_index": 117, "date": "MAY 5, 2015", "cause": "Gunshot", "armed": "Knife", "long": -118.0447216, "sex": "Male"}, {"lat": 37.0576948, "race": "White", "name": "Robert Frost", "date_index": 117, "date": "MAY 5, 2015", "cause": "Gunshot", "armed": "Firearm", "long": -80.7460102, "sex": "Male"}, {"lat": 40.8566684, "race": "Black", "name": "Nuwnah Laroche", "date_index": 118, "date": "MAY 6, 2015", "cause": "Struck by vehicle", "armed": "No", "long": -74.01264330000001, "sex": "Female"}, {"lat": 40.8566684, "race": "Black", "name": "Jason Champion", "date_index": 118, "date": "MAY 6, 2015", "cause": "Struck by vehicle", "armed": "No", "long": -74.01264330000001, "sex": "Male"}, {"lat": 33.9871768, "race": "Black", "name": "Brendon Glenn", "date_index": 118, "date": "MAY 6, 2015", "cause": "Gunshot", "armed": "No", "long": -118.4726295, "sex": "Male"}, {"lat": 33.8743748, "race": "Black", "name": "Nephi Arriguin", "date_index": 119, "date": "MAY 7, 2015", "cause": "Gunshot", "armed": "Vehicle", "long": -118.0503972, "sex": "Male"}, {"lat": 41.5286002, "race": "White", "name": "Michael Murphy", "date_index": 119, "date": "MAY 7, 2015", "cause": "Gunshot", "armed": "Knife", "long": -73.9530135, "sex": "Male"}, {"lat": 33.933456, "race": "White", "name": "Joseph Roy", "date_index": 119, "date": "MAY 7, 2015", "cause": "Gunshot", "armed": "Knife", "long": -84.08690399999999, "sex": "Male"}, {"lat": 35.957536, "race": "White", "name": "David Johnson", "date_index": 119, "date": "MAY 7, 2015", "cause": "Gunshot", "armed": "Firearm", "long": -78.527151, "sex": "Male"}, {"lat": 33.07847, "race": "White", "name": "Shaun Johnson", "date_index": 120, "date": "MAY 8, 2015", "cause": "Gunshot", "armed": "Other", "long": -110.923286, "sex": "Male"}, {"lat": 45.08835440000001, "race": "Black", "name": "Sam Holmes", "date_index": 120, "date": "MAY 8, 2015", "cause": "Gunshot", "armed": "No", "long": -93.2636093, "sex": "Male"}, {"lat": 27.3431072, "race": "White", "name": "John Kaafi", "date_index": 120, "date": "MAY 8, 2015", "cause": "Taser", "armed": "No", "long": -82.5386322, "sex": "Male"}, {"lat": 29.8600039, "race": "Black", "name": "Dedrick Marshall", "date_index": 120, "date": "MAY 8, 2015", "cause": "Gunshot", "armed": "Firearm", "long": -90.07242860000001, "sex": "Male"}, {"lat": 43.265561, "race": "White", "name": "David Schwalm", "date_index": 120, "date": "MAY 8, 2015", "cause": "Gunshot", "armed": "Firearm", "long": -76.00787199999999, "sex": "Male"}, {"lat": 36.1808998, "race": "White", "name": "Michael Gallagher", "date_index": 121, "date": "MAY 10, 2015", "cause": "Taser", "armed": "No", "long": -77.6664155, "sex": "Male"}, {"lat": 38.9029876, "race": "Black", "name": "Lionel Young", "date_index": 121, "date": "MAY 10, 2015", "cause": "Gunshot", "armed": "Knife", "long": -76.87556459999999, "sex": "Male"}, {"lat": 47.22854, "race": "White", "name": "Stephen Cunningham", "date_index": 122, "date": "MAY 11, 2015", "cause": "Gunshot", "armed": "Firearm", "long": -122.488875, "sex": "Male"}, {"lat": 32.660631, "race": "Black", "name": "Kelvin Goldston", "date_index": 122, "date": "MAY 11, 2015", "cause": "Gunshot", "armed": "Vehicle", "long": -97.395488, "sex": "Male"}, {"lat": 29.9728434, "race": "White", "name": "Justin Way", "date_index": 122, "date": "MAY 11, 2015", "cause": "Gunshot", "armed": "Knife", "long": -81.4809381, "sex": "Male"}, {"lat": 30.2107514, "race": "Black", "name": "D'Angelo Stallworth", "date_index": 123, "date": "MAY 12, 2015", "cause": "Gunshot", "armed": "Firearm", "long": -81.7380158, "sex": "Male"}, {"lat": 33.40779, "race": "Hispanic/Latino", "name": "Cesar Enriquez", "date_index": 123, "date": "MAY 12, 2015", "cause": "Gunshot", "armed": "Firearm", "long": -111.819482, "sex": "Male"}, {"lat": 21.3104709, "race": "Asian/Pacific Islande", "name": "Bruce Zalonka", "date_index": 123, "date": "MAY 12, 2015", "cause": "Gunshot", "armed": "Firearm", "long": -157.8621616, "sex": "Male"}, {"lat": 33.654708, "race": "White", "name": "Alec Ouzounian", "date_index": 123, "date": "MAY 12, 2015", "cause": "Gunshot", "armed": "Knife", "long": -117.613078, "sex": "Male"}, {"lat": 47.706543, "race": "Black", "name": "Lorenzo Hayes", "date_index": 124, "date": "MAY 13, 2015", "cause": "Death in custody", "armed": "No", "long": -117.4032834, "sex": "Male"}, {"lat": 36.1368922, "race": "White", "name": "Alan Dunnagan", "date_index": 124, "date": "MAY 13, 2015", "cause": "Struck by vehicle", "armed": "No", "long": -80.2941171, "sex": "Male"}, {"lat": 42.2282339, "race": "White", "name": "Sean Pelletier", "date_index": 125, "date": "MAY 14, 2015", "cause": "Gunshot", "armed": "Firearm", "long": -85.6411921, "sex": "Male"}, {"lat": 29.8500214, "race": "White", "name": "Cary Martin", "date_index": 125, "date": "MAY 14, 2015", "cause": "Gunshot", "armed": "Firearm", "long": -81.2779939, "sex": "Male"}, {"lat": 38.551512, "race": "White", "name": "Matthew Coates", "date_index": 126, "date": "MAY 15, 2015", "cause": "Gunshot", "armed": "Non-lethal firearm", "long": -121.434257, "sex": "Male"}, {"lat": 42.250393, "race": "White", "name": "Mark Farrar", "date_index": 126, "date": "MAY 15, 2015", "cause": "Gunshot", "armed": "Firearm", "long": -89.068507, "sex": "Male"}, {"lat": 40.86466799999999, "race": "Hispanic/Latino", "name": "Denis Reyes", "date_index": 126, "date": "MAY 15, 2015", "cause": "Death in custody", "armed": "No", "long": -73.8924023, "sex": "Male"}, {"lat": 33.35696739999999, "race": "White", "name": "Timothy Jones", "date_index": 127, "date": "MAY 17, 2015", "cause": "Gunshot", "armed": "Other", "long": -105.6733452, "sex": "Male"}, {"lat": 41.6033513, "race": "Black", "name": "Ronell Wade", "date_index": 127, "date": "MAY 17, 2015", "cause": "Gunshot", "armed": "Firearm", "long": -87.6340077, "sex": "Male"}, {"lat": 32.8019708, "race": "White", "name": "Dennis Fiel", "date_index": 127, "date": "MAY 17, 2015", "cause": "Gunshot", "armed": "Firearm", "long": -117.1539803, "sex": "Male"}, {"lat": 27.820075, "race": "White", "name": "Austin Goodner", "date_index": 127, "date": "MAY 17, 2015", "cause": "Gunshot", "armed": "Firearm", "long": -82.658806, "sex": "Male"}, {"lat": 34.9675056, "race": "White", "name": "Jonathan McIntosh", "date_index": 128, "date": "MAY 19, 2015", "cause": "Gunshot", "armed": "Firearm", "long": -92.0082639, "sex": "Male"}, {"lat": 34.268116, "race": "White", "name": "Johnathan Nelson", "date_index": 128, "date": "MAY 19, 2015", "cause": "Gunshot", "armed": "No", "long": -86.2199697, "sex": "Male"}, {"lat": 39.0733593, "race": "White", "name": "David Gaines", "date_index": 128, "date": "MAY 19, 2015", "cause": "Gunshot", "armed": "Firearm", "long": -108.555956, "sex": "Male"}, {"lat": 40.0433804, "race": "Black", "name": "Anthony Gomez Jr", "date_index": 128, "date": "MAY 19, 2015", "cause": "Gunshot", "armed": "Firearm", "long": -76.2999485, "sex": "Male"}, {"lat": 38.873432, "race": "Hispanic/Latino", "name": "Alfredo Rials-Torres", "date_index": 128, "date": "MAY 19, 2015", "cause": "Gunshot", "armed": "Knife", "long": -77.1047012, "sex": "Male"}, {"lat": 44.3018461, "race": "White", "name": "Nikki Burtsfield", "date_index": 129, "date": "MAY 20, 2015", "cause": "Gunshot", "armed": "Knife", "long": -105.449958, "sex": "Female"}, {"lat": 41.323469, "race": "Black", "name": "Marcus Wheeler", "date_index": 129, "date": "MAY 20, 2015", "cause": "Gunshot", "armed": "Firearm", "long": -95.95937099999999, "sex": "Male"}, {"lat": 40.965701, "race": "White", "name": "Jonathan Colley", "date_index": 129, "date": "MAY 20, 2015", "cause": "Gunshot", "armed": "Knife", "long": -81.42941700000002, "sex": "Male"}, {"lat": 32.857792, "race": "White", "name": "James Cooper", "date_index": 129, "date": "MAY 20, 2015", "cause": "Gunshot", "armed": "Knife", "long": -80.077665, "sex": "Male"}, {"lat": 32.7794464, "race": "Black", "name": "Jerome Caldwell", "date_index": 130, "date": "MAY 21, 2015", "cause": "Gunshot", "armed": "Firearm", "long": -79.9384319, "sex": "Male"}, {"lat": 26.1071262, "race": "Black", "name": "Javoris Washington", "date_index": 130, "date": "MAY 21, 2015", "cause": "Gunshot", "armed": "Other", "long": -80.1828122, "sex": "Male"}, {"lat": 40.9010722, "race": "Hispanic/Latino", "name": "Elvin Diaz", "date_index": 130, "date": "MAY 21, 2015", "cause": "Gunshot", "armed": "Knife", "long": -74.0409086, "sex": "Male"}, {"lat": 31.9035603, "race": "Hispanic/Latino", "name": "David Gandara", "date_index": 130, "date": "MAY 21, 2015", "cause": "Gunshot", "armed": "Firearm", "long": -106.4233476, "sex": "Male"}, {"lat": 37.72417739999999, "race": "Black", "name": "Chrislon Talbott", "date_index": 130, "date": "MAY 21, 2015", "cause": "Gunshot", "armed": "Firearm", "long": -87.1226697, "sex": "Male"}, {"lat": 40.0341886, "race": "White", "name": "Michael Lowrey", "date_index": 131, "date": "MAY 22, 2015", "cause": "Gunshot", "armed": "Non-lethal firearm", "long": -79.0734324, "sex": "Male"}, {"lat": 38.6580597, "race": "White", "name": "James Horn Jr", "date_index": 132, "date": "MAY 23, 2015", "cause": "Gunshot", "armed": "Firearm", "long": -93.51761359999999, "sex": "Male"}, {"lat": 34.1134767, "race": "White", "name": "Eric Robinson", "date_index": 132, "date": "MAY 23, 2015", "cause": "Gunshot", "armed": "Firearm", "long": -109.2910852, "sex": "Male"}, {"lat": 42.385912, "race": "Black", "name": "Caso Jackson", "date_index": 132, "date": "MAY 23, 2015", "cause": "Gunshot", "armed": "Firearm", "long": -83.187617, "sex": "Male"}, {"lat": 38.6764729, "race": "White", "name": "Thomas Ramey", "date_index": 133, "date": "MAY 25, 2015", "cause": "Struck by vehicle", "armed": "No", "long": -78.4256296, "sex": "Male"}, {"lat": 30.33212199999999, "race": "White", "name": "Cassandra Bolin", "date_index": 133, "date": "MAY 25, 2015", "cause": "Gunshot", "armed": "Firearm", "long": -97.720567, "sex": "Female"}, {"lat": 38.6764729, "race": "White", "name": "Barbara Ramey", "date_index": 133, "date": "MAY 25, 2015", "cause": "Struck by vehicle", "armed": "No", "long": -78.4256296, "sex": "Female"}, {"lat": 34.6155635, "race": "Black", "name": "Anthony Briggs", "date_index": 133, "date": "MAY 25, 2015", "cause": "Gunshot", "armed": "Knife", "long": -86.5640063, "sex": "Male"}, {"lat": 47.8385872, "race": "White", "name": "Millard Tallant III", "date_index": 134, "date": "MAY 26, 2015", "cause": "Gunshot", "armed": "Firearm", "long": -122.0135531, "sex": "Male"}, {"lat": 32.5170604, "race": "White", "name": "Jessie Williams", "date_index": 134, "date": "MAY 26, 2015", "cause": "Gunshot", "armed": "Unknown", "long": -93.7076214, "sex": "Male"}, {"lat": 40.6569712, "race": "Black", "name": "Dalton Branch", "date_index": 134, "date": "MAY 26, 2015", "cause": "Gunshot", "armed": "Firearm", "long": -73.888674, "sex": "Male"}, {"lat": 32.7514972, "race": "White", "name": "Simon Hubble", "date_index": 135, "date": "MAY 27, 2015", "cause": "Gunshot", "armed": "Other", "long": -116.6981544, "sex": "Male"}, {"lat": 40.44397, "race": "White", "name": "Scott McAllister", "date_index": 135, "date": "MAY 27, 2015", "cause": "Gunshot", "armed": "Knife", "long": -74.112881, "sex": "Male"}, {"lat": 39.136123, "race": "White", "name": "Randall Torrence", "date_index": 135, "date": "MAY 27, 2015", "cause": "Taser", "armed": "No", "long": -94.6422994, "sex": "Male"}, {"lat": 33.3435107, "race": "White", "name": "Harry Davis", "date_index": 135, "date": "MAY 27, 2015", "cause": "Gunshot", "armed": "Knife", "long": -83.2064657, "sex": "Male"}, {"lat": 35.633279, "race": "White", "name": "Garrett Sandeno", "date_index": 135, "date": "MAY 27, 2015", "cause": "Gunshot", "armed": "Non-lethal firearm", "long": -97.45767599999999, "sex": "Male"}, {"lat": 33.7854079, "race": "Arab-American", "name": "Feras Morad", "date_index": 135, "date": "MAY 27, 2015", "cause": "Gunshot", "armed": "No", "long": -118.139309, "sex": "Male"}, {"lat": 42.140967, "race": "White", "name": "Kyle Baker", "date_index": 136, "date": "MAY 28, 2015", "cause": "Gunshot", "armed": "Other", "long": -83.2159315, "sex": "Male"}, {"lat": 33.5905912, "race": "Black", "name": "Kenneth Dothard", "date_index": 136, "date": "MAY 28, 2015", "cause": "Gunshot", "armed": "Firearm", "long": -85.04889829999999, "sex": "Male"}, {"lat": 39.89451800000001, "race": "Black", "name": "James Strong", "date_index": 136, "date": "MAY 28, 2015", "cause": "Gunshot", "armed": "Firearm", "long": -104.977229, "sex": "Male"}, {"lat": 34.7966941, "race": "White", "name": "Darrell Morgan", "date_index": 136, "date": "MAY 28, 2015", "cause": "Gunshot", "armed": "Firearm", "long": -80.7968325, "sex": "Male"}, {"lat": 42.360073, "race": "White", "name": "Robert Box", "date_index": 137, "date": "MAY 29, 2015", "cause": "Gunshot", "armed": "Unknown", "long": -123.44641, "sex": "Male"}, {"lat": 35.8418241, "race": "White", "name": "Nehemiah Fischer", "date_index": 137, "date": "MAY 29, 2015", "cause": "Gunshot", "armed": "Unknown", "long": -95.89061369999999, "sex": "Male"}, {"lat": 40.8124892, "race": "Black", "name": "Kevin Allen", "date_index": 137, "date": "MAY 29, 2015", "cause": "Gunshot", "armed": "Knife", "long": -74.124708, "sex": "Male"}, {"lat": 38.11689459999999, "race": "White", "name": "Billy Collins", "date_index": 137, "date": "MAY 29, 2015", "cause": "Taser", "armed": "No", "long": -82.6037087, "sex": "Male"}, {"lat": 34.6900968, "race": "White", "name": "Ebin Proctor", "date_index": 138, "date": "MAY 30, 2015", "cause": "Gunshot", "armed": "No", "long": -111.9855739, "sex": "Male"}, {"lat": 36.1257808, "race": "Hispanic/Latino", "name": "Alexander Rivera", "date_index": 138, "date": "MAY 30, 2015", "cause": "Gunshot", "armed": "Non-lethal firearm", "long": -86.70910889999999, "sex": "Male"}, {"lat": 43.147847, "race": "Black", "name": "Richard Davis", "date_index": 139, "date": "MAY 31, 2015", "cause": "Taser", "armed": "No", "long": -77.630957, "sex": "Male"}, {"lat": 42.31101100000001, "race": "White", "name": "James Morris", "date_index": 139, "date": "MAY 31, 2015", "cause": "Gunshot", "armed": "Firearm", "long": -122.831641, "sex": "Male"}, {"lat": 31.734348, "race": "White", "name": "James Bushey", "date_index": 139, "date": "MAY 31, 2015", "cause": "Gunshot", "armed": "Non-lethal firearm", "long": -95.6166867, "sex": "Male"}, {"lat": 34.7675524, "race": "Black", "name": "Curtis Jordan", "date_index": 139, "date": "MAY 31, 2015", "cause": "Death in custody", "armed": "No", "long": -86.6742895, "sex": "Male"}, {"lat": 32.8677027, "race": "Arab-American", "name": "Kamal Dajani", "date_index": 140, "date": "JUNE 1, 2015", "cause": "Gunshot", "armed": "Knife", "long": -97.516391, "sex": "Male"}, {"lat": 43.2076031, "race": "White", "name": "Joseph Ladd", "date_index": 140, "date": "JUNE 1, 2015", "cause": "Gunshot", "armed": "Firearm", "long": -77.6910882, "sex": "Male"}, {"lat": 42.2754549, "race": "Black", "name": "Usaama Rahim", "date_index": 141, "date": "JUNE 2, 2015", "cause": "Gunshot", "armed": "Knife", "long": -71.1389707, "sex": "Male"}, {"lat": 39.8343626, "race": "Black", "name": "Sherman Byrd Jr", "date_index": 142, "date": "JUNE 3, 2015", "cause": "Struck by vehicle", "armed": "Firearm", "long": -75.4003546, "sex": "Male"}, {"lat": 34.7508504, "race": "Hispanic/Latino", "name": "Rudy Baca", "date_index": 142, "date": "JUNE 3, 2015", "cause": "Gunshot", "armed": "Unknown", "long": -106.7560666, "sex": "Male"}, {"lat": 40.9529796, "race": "White", "name": "Ronald Neal", "date_index": 142, "date": "JUNE 3, 2015", "cause": "Gunshot", "armed": "Firearm", "long": -74.74063760000001, "sex": "Male"}, {"lat": 32.2579111, "race": "Hispanic/Latino", "name": "Miguel Martinez", "date_index": 142, "date": "JUNE 3, 2015", "cause": "Gunshot", "armed": "Firearm", "long": -96.8714906, "sex": "Male"}, {"lat": 35.787076, "race": "Hispanic/Latino", "name": "Lorenzo Garza Jr", "date_index": 142, "date": "JUNE 3, 2015", "cause": "Gunshot", "armed": "Firearm", "long": -119.221443, "sex": "Male"}, {"lat": 29.6149691, "race": "Hispanic/Latino", "name": "Edelmiro Hernandez", "date_index": 142, "date": "JUNE 3, 2015", "cause": "Gunshot", "armed": "Knife", "long": -95.2142447, "sex": "Male"}, {"lat": 40.0566135, "race": "Black", "name": "Andrew Ellerbe", "date_index": 143, "date": "JUNE 4, 2015", "cause": "Gunshot", "armed": "Firearm", "long": -75.0883604, "sex": "Male"}, {"lat": 34.9705646, "race": "Hispanic/Latino", "name": "Jesus Gomez", "date_index": 144, "date": "JUNE 5, 2015", "cause": "Gunshot", "armed": "Firearm", "long": -120.4390976, "sex": "Male"}, {"lat": 37.7182846, "race": "White", "name": "Donald Pinkerton-DeVito", "date_index": 144, "date": "JUNE 5, 2015", "cause": "Struck by vehicle", "armed": "No", "long": -122.4258691, "sex": "Male"}, {"lat": 39.6231647, "race": "White", "name": "Christie Cathers", "date_index": 144, "date": "JUNE 5, 2015", "cause": "Gunshot", "armed": "Vehicle", "long": -79.9060425, "sex": "Female"}, {"lat": 32.0091566, "race": "White", "name": "Joe Nevels", "date_index": 145, "date": "JUNE 6, 2015", "cause": "Gunshot", "armed": "Knife", "long": -102.1396944, "sex": "Male"}, {"lat": 27.0592088, "race": "White", "name": "James Smillie", "date_index": 145, "date": "JUNE 6, 2015", "cause": "Gunshot", "armed": "Firearm", "long": -82.24958869999999, "sex": "Male"}, {"lat": 37.8099206, "race": "Black", "name": "Demouria Hogg", "date_index": 145, "date": "JUNE 6, 2015", "cause": "Gunshot", "armed": "Firearm", "long": -122.2461916, "sex": "Male"}, {"lat": 39.7383163, "race": "Hispanic/Latino", "name": "Damien Ramirez", "date_index": 145, "date": "JUNE 6, 2015", "cause": "Gunshot", "armed": "Firearm", "long": -104.3232924, "sex": "Male"}, {"lat": 36.9044794, "race": "Hispanic/Latino", "name": "Alejandro Fernandez", "date_index": 145, "date": "JUNE 6, 2015", "cause": "Gunshot", "armed": "Firearm", "long": -121.7503281, "sex": "Male"}, {"lat": 45.902923, "race": "White", "name": "Gene Marshall", "date_index": 146, "date": "JUNE 7, 2015", "cause": "Gunshot", "armed": "Firearm", "long": -122.750624, "sex": "Male"}, {"lat": 32.7889563, "race": "Black", "name": "Ross Anthony", "date_index": 147, "date": "JUNE 8, 2015", "cause": "Taser", "armed": "No", "long": -96.7001238, "sex": "Male"}, {"lat": 33.631089, "race": "White", "name": "Richard Warolf", "date_index": 147, "date": "JUNE 8, 2015", "cause": "Gunshot", "armed": "Firearm", "long": -112.257555, "sex": "Male"}, {"lat": 33.8472179, "race": "Hispanic/Latino", "name": "Rene Garcia", "date_index": 147, "date": "JUNE 8, 2015", "cause": "Gunshot", "armed": "Knife", "long": -117.922842, "sex": "Male"}, {"lat": 28.0836288, "race": "White", "name": "Matthew McDaniel", "date_index": 147, "date": "JUNE 8, 2015", "cause": "Gunshot", "armed": "Firearm", "long": -80.6061525, "sex": "Male"}, {"lat": 40.8607073, "race": "Hispanic/Latino", "name": "Mario Ocasio", "date_index": 147, "date": "JUNE 8, 2015", "cause": "Taser", "armed": "Other", "long": -73.9092125, "sex": "Male"}, {"lat": 39.7217266, "race": "White", "name": "James Johnson", "date_index": 147, "date": "JUNE 8, 2015", "cause": "Gunshot", "armed": "Firearm", "long": -86.0861862, "sex": "Male"}, {"lat": 41.6221817, "race": "White", "name": "Ryan Bolinger", "date_index": 148, "date": "JUNE 9, 2015", "cause": "Gunshot", "armed": "No", "long": -93.697744, "sex": "Male"}, {"lat": 39.163827, "race": "Black", "name": "Quandavier Hicks", "date_index": 148, "date": "JUNE 9, 2015", "cause": "Gunshot", "armed": "Firearm", "long": -84.5436129, "sex": "Male"}, {"lat": 41.037332, "race": "White", "name": "Jeremy Linhart", "date_index": 148, "date": "JUNE 9, 2015", "cause": "Gunshot", "armed": "No", "long": -83.66157299999999, "sex": "Male"}, {"lat": 30.0259838, "race": "White", "name": "Gregory Hartley", "date_index": 148, "date": "JUNE 9, 2015", "cause": "Gunshot", "armed": "Firearm", "long": -95.6171433, "sex": "Male"}, {"lat": 40.8505277, "race": "Black", "name": "Isiah Hampton", "date_index": 149, "date": "JUNE 10, 2015", "cause": "Gunshot", "armed": "Firearm", "long": -73.90033129999999, "sex": "Male"}, {"lat": 35.6325875, "race": "White", "name": "Raymond Phillips", "date_index": 150, "date": "JUNE 11, 2015", "cause": "Gunshot", "armed": "Firearm", "long": -86.943084, "sex": "Male"}, {"lat": 40.907289, "race": "Hispanic/Latino", "name": "Raymond Peralta-lantigua", "date_index": 150, "date": "JUNE 11, 2015", "cause": "Gunshot", "armed": "Knife", "long": -74.040021, "sex": "Male"}, {"lat": 29.5230037, "race": "Hispanic/Latino", "name": "Mark Flores Jr", "date_index": 150, "date": "JUNE 11, 2015", "cause": "Gunshot", "armed": "Firearm", "long": -98.3553695, "sex": "Male"}, {"lat": 25.786305, "race": "Black", "name": "Fritz Severe", "date_index": 150, "date": "JUNE 11, 2015", "cause": "Gunshot", "armed": "Other", "long": -80.201065, "sex": "Male"}, {"lat": 26.2756936, "race": "Black", "name": "Charles Ziegler", "date_index": 150, "date": "JUNE 11, 2015", "cause": "Gunshot", "armed": "Firearm", "long": -80.1045379, "sex": "Male"}, {"lat": 40.4687714, "race": "White", "name": "Shelly Lynn Haendiges", "date_index": 151, "date": "JUNE 12, 2015", "cause": "Gunshot", "armed": "Non-lethal firearm", "long": -86.16505959999999, "sex": "Female"}, {"lat": 38.237551, "race": "White", "name": "David Munday", "date_index": 151, "date": "JUNE 12, 2015", "cause": "Death in custody", "armed": "No", "long": -81.23767140000001, "sex": "Male"}, {"lat": 39.8492894, "race": "White", "name": "James Payne Jr", "date_index": 152, "date": "JUNE 13, 2015", "cause": "Struck by vehicle", "armed": "No", "long": -84.3299493, "sex": "Male"}, {"lat": 32.6574833, "race": "White", "name": "James Boulware", "date_index": 152, "date": "JUNE 13, 2015", "cause": "Gunshot", "armed": "Firearm", "long": -96.7192256, "sex": "Male"}, {"lat": 38.2350183, "race": "Black", "name": "Deng Manyoun", "date_index": 152, "date": "JUNE 13, 2015", "cause": "Gunshot", "armed": "Other", "long": -85.7603295, "sex": "Male"}, {"lat": 33.53027, "race": "White", "name": "Candace Blakley", "date_index": 152, "date": "JUNE 13, 2015", "cause": "Gunshot", "armed": "Unknown", "long": -81.975145, "sex": "Female"}, {"lat": 41.0975138, "race": "White", "name": "Anthony Hodge", "date_index": 152, "date": "JUNE 13, 2015", "cause": "Gunshot", "armed": "Firearm", "long": -85.1561826, "sex": "Male"}, {"lat": 34.9187608, "race": "Black", "name": "Alan Williams", "date_index": 152, "date": "JUNE 13, 2015", "cause": "Struck by vehicle", "armed": "No", "long": -82.43299139999999, "sex": "Male"}, {"lat": 28.359086, "race": "White", "name": "Zane Terryn", "date_index": 153, "date": "JUNE 14, 2015", "cause": "Gunshot", "armed": "Firearm", "long": -80.7924587, "sex": "Male"}, {"lat": 37.9766056, "race": "Hispanic/Latino", "name": "Kenneth Garcia", "date_index": 153, "date": "JUNE 14, 2015", "cause": "Gunshot", "armed": "Vehicle", "long": -121.3432901, "sex": "Male"}, {"lat": 38.950721, "race": "Black", "name": "Kris Jackson", "date_index": 154, "date": "JUNE 15, 2015", "cause": "Gunshot", "armed": "No", "long": -119.951732, "sex": "Male"}, {"lat": 40.222117, "race": "White", "name": "Tamara Seidle", "date_index": 155, "date": "JUNE 16, 2015", "cause": "Gunshot", "armed": "No", "long": -74.025122, "sex": "Female"}, {"lat": 27.6714368, "race": "Black", "name": "Jermaine Benjamin", "date_index": 155, "date": "JUNE 16, 2015", "cause": "Death in custody", "armed": "No", "long": -80.4211401, "sex": "Male"}, {"lat": 36.3053283, "race": "White", "name": "Christopher DeLeon", "date_index": 155, "date": "JUNE 16, 2015", "cause": "Gunshot", "armed": "Firearm", "long": -119.3120879, "sex": "Male"}, {"lat": 32.8575873, "race": "White", "name": "Wendy Chappell", "date_index": 156, "date": "JUNE 17, 2015", "cause": "Gunshot", "armed": "Firearm", "long": -86.6014629, "sex": "Female"}, {"lat": 32.7319398, "race": "White", "name": "Kenneth Lanphier", "date_index": 156, "date": "JUNE 17, 2015", "cause": "Gunshot", "armed": "Firearm", "long": -103.1340711, "sex": "Male"}, {"lat": 47.97999859999999, "race": "Native", "name": "Joseph Charboneau", "date_index": 156, "date": "JUNE 17, 2015", "cause": "Gunshot", "armed": "Firearm", "long": -98.99290049999999, "sex": "America"}, {"lat": 40.5753224, "race": "White", "name": "Oleg Tcherniak", "date_index": 157, "date": "JUNE 18, 2015", "cause": "Gunshot", "armed": "Knife", "long": -73.9691187, "sex": "Male"}, {"lat": 39.1557286, "race": "Black", "name": "Trepierre Hummons", "date_index": 158, "date": "JUNE 19, 2015", "cause": "Gunshot", "armed": "Firearm", "long": -84.3936468, "sex": "Male"}, {"lat": 42.3538863, "race": "Hispanic/Latino", "name": "Santos Laboy", "date_index": 158, "date": "JUNE 19, 2015", "cause": "Gunshot", "armed": "Knife", "long": -71.08460769999999, "sex": "Male"}, {"lat": 40.427164, "race": "Hispanic/Latino", "name": "Louis Atencio", "date_index": 158, "date": "JUNE 19, 2015", "cause": "Gunshot", "armed": "Firearm", "long": -104.70384, "sex": "Male"}, {"lat": 30.5346707, "race": "Black", "name": "Kevin Bajoie", "date_index": 159, "date": "JUNE 20, 2015", "cause": "Taser", "armed": "No", "long": -91.19227740000001, "sex": "Male"}, {"lat": 41.766265, "race": "Black", "name": "Alfontish Cockerham", "date_index": 159, "date": "JUNE 20, 2015", "cause": "Gunshot", "armed": "Firearm", "long": -87.57263979999999, "sex": "Male"}, {"lat": 30.0305277, "race": "White", "name": "Charles Marshall", "date_index": 160, "date": "JUNE 21, 2015", "cause": "Gunshot", "armed": "Other", "long": -95.4425881, "sex": "Male"}, {"lat": 43.646384, "race": "Hispanic/Latino", "name": "Allen Hernandez", "date_index": 160, "date": "JUNE 21, 2015", "cause": "Death in custody", "armed": "No", "long": -116.97664, "sex": "Male"},